[{"name":"AdventNet","category_code":"enterprise","office":{"type":"Point","coordinates":[-121.904945,37.692934]},"clean_state":"success","latitude":37.692934,"longitude":-121.904945},{"name":"Wetpaint","category_code":"web","office":{"type":"Point","coordinates":[-122.333253,47.603122]},"clean_state":"success","latitude":47.603122,"longitude":-122.333253},{"name":"Wetpaint","category_code":"web","office":{"type":"Point","coordinates":[-73.9964312,40.7237306]},"clean_state":"success","latitude":40.7237306,"longitude":-73.9964312},{"name":"Zoho","category_code":"software","office":{"type":"Point","coordinates":[-121.904945,37.692934]},"clean_state":"success","latitude":37.692934,"longitude":-121.904945},{"name":"Postini","category_code":"web","office":{"type":"Point","coordinates":[-122.247573,37.506885]},"clean_state":"success","latitude":37.506885,"longitude":-122.247573},{"name":"Omnidrive","category_code":"network_hosting","office":null,"clean_state":"Invalid lat lat and long","latitude":null,"longitude":null},{"name":"Flektor","category_code":"games_video","office":{"type":"Point","coordinates":[-118.379768,34.025958]},"clean_state":"success","latitude":34.025958,"longitude":-118.379768},{"name":"Geni","category_code":"web","office":{"type":"Point","coordinates":[-118.393064,34.090368]},"clean_state":"success","latitude":34.090368,"longitude":-118.393064},{"name":"Digg","category_code":"news","office":{"type":"Point","coordinates":[-122.394523,37.764726]},"clean_state":"success","latitude":37.764726,"longitude":-122.394523},{"name":"StumbleUpon","category_code":"web","office":{"type":"Point","coordinates":[-122.419204,37.775196]},"clean_state":"success","latitude":37.775196,"longitude":-122.419204},{"name":"StumbleUpon","category_code":"web","office":null,"clean_state":"Invalid lat lat and long","latitude":null,"longitude":null},{"name":"Fox Interactive Media","category_code":"web","office":{"type":"Point","coordinates":[-118.39417,34.076179]},"clean_state":"success","latitude":34.076179,"longitude":-118.39417},{"name":"Gizmoz","category_code":"web","office":{"type":"Point","coordinates":[-122.169472,37.48413]},"clean_state":"success","latitude":37.48413,"longitude":-122.169472},{"name":"Scribd","category_code":"news","office":{"type":"Point","coordinates":[-122.404052,37.789634]},"clean_state":"success","latitude":37.789634,"longitude":-122.404052},{"name":"Slacker","category_code":"music","office":{"type":"Point","coordinates":[-117.081406,33.022176]},"clean_state":"success","latitude":33.022176,"longitude":-117.081406},{"name":"Lala","category_code":"games_video","office":{"type":"Point","coordinates":[-122.154369,37.451151]},"clean_state":"success","latitude":37.451151,"longitude":-122.154369},{"name":"Helio","category_code":"mobile","office":{"type":"Point","coordinates":[-118.446596,34.057498]},"clean_state":"success","latitude":34.057498,"longitude":-118.446596},{"name":"MeetMoi","category_code":"social","office":{"type":"Point","coordinates":[-73.985506,40.757929]},"clean_state":"success","latitude":40.757929,"longitude":-73.985506},{"name":"Joost","category_code":"games_video","office":{"type":"Point","coordinates":[-74.0094471,40.7464969]},"clean_state":"success","latitude":40.7464969,"longitude":-74.0094471},{"name":"Twitter","category_code":"social","office":{"type":"Point","coordinates":[-122.4169244,37.7768052]},"clean_state":"success","latitude":37.7768052,"longitude":-122.4169244},{"name":"CBS","category_code":"news","office":{"type":"Point","coordinates":[-119.306607,37.269175]},"clean_state":"success","latitude":37.269175,"longitude":-119.306607},{"name":"Babelgum","category_code":"games_video","office":{"type":"Point","coordinates":[-6.267494,53.344104]},"clean_state":"success","latitude":53.344104,"longitude":-6.267494},{"name":"Facebook","category_code":"social","office":{"type":"Point","coordinates":[-122.151801,37.41605]},"clean_state":"success","latitude":37.41605,"longitude":-122.151801},{"name":"Facebook","category_code":"social","office":{"type":"Point","coordinates":[-6.267494,53.344104]},"clean_state":"success","latitude":53.344104,"longitude":-6.267494},{"name":"Facebook","category_code":"social","office":{"type":"Point","coordinates":[-73.9792469,40.7557162]},"clean_state":"success","latitude":40.7557162,"longitude":-73.9792469},{"name":"Viacom","category_code":"web","office":{"type":"Point","coordinates":[-73.986011,40.757725]},"clean_state":"success","latitude":40.757725,"longitude":-73.986011},{"name":"Plaxo","category_code":"web","office":{"type":"Point","coordinates":[-122.055197,37.387845]},"clean_state":"success","latitude":37.387845,"longitude":-122.055197},{"name":"Powerset","category_code":"search","office":{"type":"Point","coordinates":[-122.395289,37.778613]},"clean_state":"success","latitude":37.778613,"longitude":-122.395289},{"name":"Technorati","category_code":"advertising","office":{"type":"Point","coordinates":[-122.393041,37.779558]},"clean_state":"success","latitude":37.779558,"longitude":-122.393041},{"name":"SpinVox","category_code":"messaging","office":null,"clean_state":"Invalid lat lat and long","latitude":null,"longitude":null},{"name":"eBay","category_code":"web","office":{"type":"Point","coordinates":[-121.930035,37.295005]},"clean_state":"success","latitude":37.295005,"longitude":-121.930035},{"name":"AddThis","category_code":"advertising","office":{"type":"Point","coordinates":[-77.245195,38.926172]},"clean_state":"success","latitude":38.926172,"longitude":-77.245195},{"name":"AddThis","category_code":"advertising","office":{"type":"Point","coordinates":[-73.996876,40.724604]},"clean_state":"success","latitude":40.724604,"longitude":-73.996876},{"name":"AddThis","category_code":"advertising","office":{"type":"Point","coordinates":[-118.380954,34.0263021]},"clean_state":"success","latitude":34.0263021,"longitude":-118.380954},{"name":"AddThis","category_code":"advertising","office":null,"clean_state":"Invalid lat lat and long","latitude":null,"longitude":null},{"name":"AddThis","category_code":"advertising","office":null,"clean_state":"Invalid lat lat and long","latitude":null,"longitude":null},{"name":"AddThis","category_code":"advertising","office":{"type":"Point","coordinates":[-83.167884,42.557958]},"clean_state":"success","latitude":42.557958,"longitude":-83.167884},{"name":"Mahalo","category_code":"web","office":{"type":"Point","coordinates":[-118.487267,34.017606]},"clean_state":"success","latitude":34.017606,"longitude":-118.487267},{"name":"Sparter","category_code":"games_video","office":{"type":"Point","coordinates":[-95.712891,37.09024]},"clean_state":"success","latitude":37.09024,"longitude":-95.712891},{"name":"OpenX","category_code":"advertising","office":{"type":"Point","coordinates":[-118.1327468,34.1494713]},"clean_state":"success","latitude":34.1494713,"longitude":-118.1327468},{"name":"OpenX","category_code":"advertising","office":null,"clean_state":"Invalid lat lat and long","latitude":null,"longitude":null},{"name":"OpenX","category_code":"advertising","office":null,"clean_state":"Invalid lat lat and long","latitude":null,"longitude":null},{"name":"OpenX","category_code":"advertising","office":null,"clean_state":"Invalid lat lat and long","latitude":null,"longitude":null},{"name":"OpenX","category_code":"advertising","office":null,"clean_state":"Invalid lat lat and long","latitude":null,"longitude":null},{"name":"Veoh","category_code":"games_video","office":{"type":"Point","coordinates":[-117.20834,32.902266]},"clean_state":"success","latitude":32.902266,"longitude":-117.20834},{"name":"Kyte","category_code":"games_video","office":{"type":"Point","coordinates":[-122.409173,37.788482]},"clean_state":"success","latitude":37.788482,"longitude":-122.409173},{"name":"Thoof","category_code":"web","office":{"type":"Point","coordinates":[-97.745209,30.268735]},"clean_state":"success","latitude":30.268735,"longitude":-97.745209},{"name":"Gannett","category_code":"web","office":{"type":"Point","coordinates":[-77.216585,38.929289]},"clean_state":"success","latitude":38.929289,"longitude":-77.216585},{"name":"Info","category_code":"web","office":{"type":"Point","coordinates":[-87.622309,41.885619]},"clean_state":"success","latitude":41.885619,"longitude":-87.622309},{"name":"JotSpot","category_code":"web","office":{"type":"Point","coordinates":[-122.159928,37.437328]},"clean_state":"success","latitude":37.437328,"longitude":-122.159928},{"name":"Jingle Networks","category_code":"mobile","office":{"type":"Point","coordinates":[-122.173887,37.480999]},"clean_state":"success","latitude":37.480999,"longitude":-122.173887},{"name":"Mercora","category_code":"web","office":{"type":"Point","coordinates":[-122.012475,37.384239]},"clean_state":"success","latitude":37.384239,"longitude":-122.012475},{"name":"Meetup","category_code":"web","office":{"type":"Point","coordinates":[-73.995722,40.72604]},"clean_state":"success","latitude":40.72604,"longitude":-73.995722},{"name":"NetRatings","category_code":"web","office":{"type":"Point","coordinates":[-95.712891,37.09024]},"clean_state":"success","latitude":37.09024,"longitude":-95.712891},{"name":"Wesabe","category_code":"web","office":{"type":"Point","coordinates":[-122.402567,37.793148]},"clean_state":"success","latitude":37.793148,"longitude":-122.402567},{"name":"LifeLock","category_code":"security","office":{"type":"Point","coordinates":[-111.938739,33.429859]},"clean_state":"success","latitude":33.429859,"longitude":-111.938739},{"name":"SmugMug","category_code":"photo_video","office":{"type":"Point","coordinates":[-122.067692,37.390056]},"clean_state":"success","latitude":37.390056,"longitude":-122.067692},{"name":"Jangl SMS","category_code":"web","office":{"type":"Point","coordinates":[-121.907768,37.697805]},"clean_state":"success","latitude":37.697805,"longitude":-121.907768},{"name":"Prosper","category_code":"finance","office":{"type":"Point","coordinates":[-122.402524,37.78976]},"clean_state":"success","latitude":37.78976,"longitude":-122.402524},{"name":"Jajah","category_code":"mobile","office":{"type":"Point","coordinates":[-122.0899512,37.4233896]},"clean_state":"success","latitude":37.4233896,"longitude":-122.0899512},{"name":"Cisco","category_code":"network_hosting","office":{"type":"Point","coordinates":[-121.95377,37.408802]},"clean_state":"success","latitude":37.408802,"longitude":-121.95377},{"name":"Skype","category_code":"software","office":{"type":"Point","coordinates":[-0.131916,51.518132]},"clean_state":"success","latitude":51.518132,"longitude":-0.131916},{"name":"Skype","category_code":"software","office":null,"clean_state":"Invalid lat lat and long","latitude":null,"longitude":null},{"name":"Skype","category_code":"software","office":null,"clean_state":"Invalid lat lat and long","latitude":null,"longitude":null},{"name":"Stickam","category_code":"games_video","office":{"type":"Point","coordinates":[-118.254558,34.051409]},"clean_state":"success","latitude":34.051409,"longitude":-118.254558},{"name":"blogTV","category_code":"games_video","office":{"type":"Point","coordinates":[34.851612,31.046051]},"clean_state":"success","latitude":31.046051,"longitude":34.851612},{"name":"Livestream","category_code":"games_video","office":{"type":"Point","coordinates":[-73.995625,40.726155]},"clean_state":"success","latitude":40.726155,"longitude":-73.995625},{"name":"YouTube","category_code":"games_video","office":{"type":"Point","coordinates":[-122.426804,37.627971]},"clean_state":"success","latitude":37.627971,"longitude":-122.426804},{"name":"Yahoo!","category_code":"web","office":{"type":"Point","coordinates":[-122.025485,37.418531]},"clean_state":"success","latitude":37.418531,"longitude":-122.025485},{"name":"Pando Networks","category_code":"games_video","office":{"type":"Point","coordinates":[-73.99873,40.722655]},"clean_state":"success","latitude":40.722655,"longitude":-73.99873},{"name":"AdaptiveBlue","category_code":"games_video","office":{"type":"Point","coordinates":[-74.3372,40.801358]},"clean_state":"success","latitude":40.801358,"longitude":-74.3372},{"name":"Ustream","category_code":"games_video","office":{"type":"Point","coordinates":[-122.07948,37.392936]},"clean_state":"success","latitude":37.392936,"longitude":-122.07948},{"name":"Ustream","category_code":"games_video","office":null,"clean_state":"Invalid lat lat and long","latitude":null,"longitude":null},{"name":"Ustream","category_code":"games_video","office":null,"clean_state":"Invalid lat lat and long","latitude":null,"longitude":null},{"name":"Ikan","category_code":"web","office":{"type":"Point","coordinates":[-73.563878,41.049051]},"clean_state":"success","latitude":41.049051,"longitude":-73.563878},{"name":"GrandCentral","category_code":"mobile","office":{"type":"Point","coordinates":[-121.932202,37.465645]},"clean_state":"success","latitude":37.465645,"longitude":-121.932202},{"name":"delicious","category_code":"web","office":null,"clean_state":"Invalid lat lat and long","latitude":null,"longitude":null},{"name":"Topix","category_code":"web","office":{"type":"Point","coordinates":[-122.151198,37.44296]},"clean_state":"success","latitude":37.44296,"longitude":-122.151198},{"name":"Pownce","category_code":"web","office":{"type":"Point","coordinates":[-122.397224,37.762541]},"clean_state":"success","latitude":37.762541,"longitude":-122.397224},{"name":"Jobster","category_code":"search","office":{"type":"Point","coordinates":[-122.357242,47.617682]},"clean_state":"success","latitude":47.617682,"longitude":-122.357242},{"name":"AllPeers","category_code":"web","office":{"type":"Point","coordinates":[-1.255824,51.752276]},"clean_state":"success","latitude":51.752276,"longitude":-1.255824},{"name":"CriticalMetrics","category_code":"web","office":{"type":"Point","coordinates":[-119.306607,37.269175]},"clean_state":"success","latitude":37.269175,"longitude":-119.306607},{"name":"Revision3","category_code":"games_video","office":{"type":"Point","coordinates":[-122.388243,37.757758]},"clean_state":"success","latitude":37.757758,"longitude":-122.388243},{"name":"ZenZui","category_code":"mobile","office":{"type":"Point","coordinates":[-122.347533,47.620716]},"clean_state":"success","latitude":47.620716,"longitude":-122.347533},{"name":"Spock","category_code":"search","office":{"type":"Point","coordinates":[-122.217964,37.488336]},"clean_state":"success","latitude":37.488336,"longitude":-122.217964},{"name":"SodaHead","category_code":"web","office":{"type":"Point","coordinates":[-119.306607,37.269175]},"clean_state":"success","latitude":37.269175,"longitude":-119.306607},{"name":"CastTV","category_code":"games_video","office":{"type":"Point","coordinates":[-122.393913,37.780716]},"clean_state":"success","latitude":37.780716,"longitude":-122.393913},{"name":"Wize","category_code":"ecommerce","office":{"type":"Point","coordinates":[-122.302262,37.559287]},"clean_state":"success","latitude":37.559287,"longitude":-122.302262},{"name":"iSkoot","category_code":"mobile","office":{"type":"Point","coordinates":[-71.118487,42.375392]},"clean_state":"success","latitude":42.375392,"longitude":-71.118487},{"name":"iSkoot","category_code":"mobile","office":{"type":"Point","coordinates":[-122.396744,37.780134]},"clean_state":"success","latitude":37.780134,"longitude":-122.396744},{"name":"AllofMP3","category_code":"games_video","office":{"type":"Point","coordinates":[37.617633,55.755786]},"clean_state":"success","latitude":55.755786,"longitude":37.617633},{"name":"EQO","category_code":"mobile","office":{"type":"Point","coordinates":[-123.138565,49.263588]},"clean_state":"success","latitude":49.263588,"longitude":-123.138565},{"name":"SellABand","category_code":"games_video","office":{"type":"Point","coordinates":[6.553452,51.808933]},"clean_state":"success","latitude":51.808933,"longitude":6.553452},{"name":"There","category_code":"games_video","office":{"type":"Point","coordinates":[-122.302149,37.553385]},"clean_state":"success","latitude":37.553385,"longitude":-122.302149},{"name":"Steorn","category_code":"web","office":{"type":"Point","coordinates":[-6.229255,53.354997]},"clean_state":"success","latitude":53.354997,"longitude":-6.229255},{"name":"Funny Or Die","category_code":"games_video","office":{"type":"Point","coordinates":[-122.137444,37.421621]},"clean_state":"success","latitude":37.421621,"longitude":-122.137444},{"name":"MeeVee","category_code":"games_video","office":{"type":"Point","coordinates":[-122.341715,37.590339]},"clean_state":"success","latitude":37.590339,"longitude":-122.341715},{"name":"iContact","category_code":"messaging","office":null,"clean_state":"Invalid lat lat and long","latitude":null,"longitude":null},{"name":"blinkx","category_code":"games_video","office":{"type":"Point","coordinates":[-122.395089,37.793819]},"clean_state":"success","latitude":37.793819,"longitude":-122.395089},{"name":"ClipBlast!","category_code":"web","office":{"type":"Point","coordinates":[-118.756618,34.155211]},"clean_state":"success","latitude":34.155211,"longitude":-118.756618},{"name":"Zlio","category_code":"ecommerce","office":{"type":"Point","coordinates":[2.381836,48.862825]},"clean_state":"success","latitude":48.862825,"longitude":2.381836},{"name":"Yelp","category_code":"search","office":{"type":"Point","coordinates":[-122.402195,37.786183]},"clean_state":"success","latitude":37.786183,"longitude":-122.402195},{"name":"Jaiku","category_code":"mobile","office":{"type":"Point","coordinates":[24.93105,60.16377]},"clean_state":"success","latitude":60.16377,"longitude":24.93105},{"name":"Tun3r","category_code":"web","office":null,"clean_state":"Invalid lat lat and long","latitude":null,"longitude":null},{"name":"Mashery","category_code":"enterprise","office":{"type":"Point","coordinates":[-122.4038047,37.7870842]},"clean_state":"success","latitude":37.7870842,"longitude":-122.4038047},{"name":"Mashery","category_code":"enterprise","office":null,"clean_state":"Invalid lat lat and long","latitude":null,"longitude":null},{"name":"Mashery","category_code":"enterprise","office":null,"clean_state":"Invalid lat lat and long","latitude":null,"longitude":null},{"name":"Spotplex","category_code":"web","office":{"type":"Point","coordinates":[-121.940749,37.380101]},"clean_state":"success","latitude":37.380101,"longitude":-121.940749},{"name":"Yapta","category_code":"travel","office":{"type":"Point","coordinates":[-122.334264,47.599925]},"clean_state":"success","latitude":47.599925,"longitude":-122.334264},{"name":"Yapta","category_code":"travel","office":null,"clean_state":"Invalid lat lat and long","latitude":null,"longitude":null},{"name":"TripUp","category_code":"web","office":{"type":"Point","coordinates":[-118.243425,34.052187]},"clean_state":"success","latitude":34.052187,"longitude":-118.243425},{"name":"Fleck","category_code":"web","office":{"type":"Point","coordinates":[4.908556,52.375595]},"clean_state":"success","latitude":52.375595,"longitude":4.908556},{"name":"Wakoopa","category_code":"web","office":{"type":"Point","coordinates":[4.8948623,52.3745228]},"clean_state":"success","latitude":52.3745228,"longitude":4.8948623},{"name":"Coghead","category_code":"web","office":{"type":"Point","coordinates":[-122.221717,37.476479]},"clean_state":"success","latitude":37.476479,"longitude":-122.221717},{"name":"Zooomr","category_code":"web","office":{"type":"Point","coordinates":[-122.419204,37.775196]},"clean_state":"success","latitude":37.775196,"longitude":-122.419204},{"name":"Intel","category_code":"hardware","office":{"type":"Point","coordinates":[-121.96761,37.384949]},"clean_state":"success","latitude":37.384949,"longitude":-121.96761},{"name":"SideStep","category_code":"web","office":{"type":"Point","coordinates":[-121.977853,37.374998]},"clean_state":"success","latitude":37.374998,"longitude":-121.977853},{"name":"Zamzar","category_code":"web","office":{"type":"Point","coordinates":[-1.3610845,50.9444598]},"clean_state":"success","latitude":50.9444598,"longitude":-1.3610845},{"name":"Farecast","category_code":"search","office":{"type":"Point","coordinates":[-122.359397,47.620982]},"clean_state":"success","latitude":47.620982,"longitude":-122.359397},{"name":"coRank","category_code":"web","office":{"type":"Point","coordinates":[-122.02421,37.36965]},"clean_state":"success","latitude":37.36965,"longitude":-122.02421},{"name":"Dailymotion","category_code":"news","office":null,"clean_state":"Invalid lat lat and long","latitude":null,"longitude":null},{"name":"Dailymotion","category_code":"news","office":null,"clean_state":"Invalid lat lat and long","latitude":null,"longitude":null},{"name":"Dailymotion","category_code":"news","office":null,"clean_state":"Invalid lat lat and long","latitude":null,"longitude":null},{"name":"Dailymotion","category_code":"news","office":null,"clean_state":"Invalid lat lat and long","latitude":null,"longitude":null},{"name":"KickApps","category_code":"enterprise","office":{"type":"Point","coordinates":[-73.9843328,40.7516611]},"clean_state":"success","latitude":40.7516611,"longitude":-73.9843328},{"name":"KickApps","category_code":"enterprise","office":{"type":"Point","coordinates":[-118.468707,33.991101]},"clean_state":"success","latitude":33.991101,"longitude":-118.468707},{"name":"KickApps","category_code":"enterprise","office":{"type":"Point","coordinates":[-122.4016144,37.7891086]},"clean_state":"success","latitude":37.7891086,"longitude":-122.4016144},{"name":"KickApps","category_code":"enterprise","office":{"type":"Point","coordinates":[-0.1356235,51.5094731]},"clean_state":"success","latitude":51.5094731,"longitude":-0.1356235},{"name":"RockYou","category_code":"games_video","office":{"type":"Point","coordinates":[-122.206893,37.484619]},"clean_state":"success","latitude":37.484619,"longitude":-122.206893},{"name":"ConVerdge","category_code":"enterprise","office":{"type":"Point","coordinates":[-118.495155,34.0126379]},"clean_state":"success","latitude":34.0126379,"longitude":-118.495155},{"name":"Pageflakes","category_code":"web","office":{"type":"Point","coordinates":[-122.414689,37.758113]},"clean_state":"success","latitude":37.758113,"longitude":-122.414689},{"name":"Instructables","category_code":"web","office":{"type":"Point","coordinates":[-122.4058887,37.7791761]},"clean_state":"success","latitude":37.7791761,"longitude":-122.4058887},{"name":"Swivel","category_code":"search","office":{"type":"Point","coordinates":[-122.395184,37.789268]},"clean_state":"success","latitude":37.789268,"longitude":-122.395184},{"name":"Netvibes","category_code":"web","office":{"type":"Point","coordinates":[2.34668,48.870806]},"clean_state":"success","latitude":48.870806,"longitude":2.34668},{"name":"Netvibes","category_code":"web","office":null,"clean_state":"Invalid lat lat and long","latitude":null,"longitude":null},{"name":"Slide","category_code":"public_relations","office":{"type":"Point","coordinates":[-122.392144,37.781427]},"clean_state":"success","latitude":37.781427,"longitude":-122.392144},{"name":"Flickr","category_code":"web","office":{"type":"Point","coordinates":[-122.025485,37.418531]},"clean_state":"success","latitude":37.418531,"longitude":-122.025485},{"name":"Google","category_code":"search","office":{"type":"Point","coordinates":[-122.084143,37.421972]},"clean_state":"success","latitude":37.421972,"longitude":-122.084143},{"name":"Google","category_code":"search","office":{"type":"Point","coordinates":[-83.748882,42.280988]},"clean_state":"success","latitude":42.280988,"longitude":-83.748882},{"name":"Google","category_code":"search","office":{"type":"Point","coordinates":[-84.387519,33.781466]},"clean_state":"success","latitude":33.781466,"longitude":-84.387519},{"name":"Google","category_code":"search","office":{"type":"Point","coordinates":[-97.751382,30.351416]},"clean_state":"success","latitude":30.351416,"longitude":-97.751382},{"name":"Google","category_code":"search","office":{"type":"Point","coordinates":[-105.260931,40.021416]},"clean_state":"success","latitude":40.021416,"longitude":-105.260931},{"name":"Google","category_code":"search","office":{"type":"Point","coordinates":[-71.087478,42.36305]},"clean_state":"success","latitude":42.36305,"longitude":-71.087478},{"name":"Google","category_code":"search","office":{"type":"Point","coordinates":[-87.628912,41.889474]},"clean_state":"success","latitude":41.889474,"longitude":-87.628912},{"name":"Google","category_code":"search","office":{"type":"Point","coordinates":[-97.018196,32.981465]},"clean_state":"success","latitude":32.981465,"longitude":-97.018196},{"name":"Google","category_code":"search","office":{"type":"Point","coordinates":[-96.807693,32.809161]},"clean_state":"success","latitude":32.809161,"longitude":-96.807693},{"name":"Google","category_code":"search","office":{"type":"Point","coordinates":[-104.898419,39.62919]},"clean_state":"success","latitude":39.62919,"longitude":-104.898419},{"name":"Google","category_code":"search","office":{"type":"Point","coordinates":[-83.215498,42.547807]},"clean_state":"success","latitude":42.547807,"longitude":-83.215498},{"name":"Google","category_code":"search","office":{"type":"Point","coordinates":[-117.861817,33.658331]},"clean_state":"success","latitude":33.658331,"longitude":-117.861817},{"name":"Google","category_code":"search","office":null,"clean_state":"Invalid lat lat and long","latitude":null,"longitude":null},{"name":"Google","category_code":"search","office":{"type":"Point","coordinates":[-74.004489,40.74222]},"clean_state":"success","latitude":40.74222,"longitude":-74.004489},{"name":"Google","category_code":"search","office":{"type":"Point","coordinates":[-111.926263,33.411898]},"clean_state":"success","latitude":33.411898,"longitude":-111.926263},{"name":"Google","category_code":"search","office":{"type":"Point","coordinates":[-79.946269,40.444528]},"clean_state":"success","latitude":40.444528,"longitude":-79.946269},{"name":"Google","category_code":"search","office":{"type":"Point","coordinates":[-122.389757,37.789803]},"clean_state":"success","latitude":37.789803,"longitude":-122.389757},{"name":"Google","category_code":"search","office":{"type":"Point","coordinates":[-118.494288,34.019282]},"clean_state":"success","latitude":34.019282,"longitude":-118.494288},{"name":"Google","category_code":"search","office":{"type":"Point","coordinates":[-122.351397,47.675326]},"clean_state":"success","latitude":47.675326,"longitude":-122.351397},{"name":"Google","category_code":"search","office":{"type":"Point","coordinates":[-122.350592,47.649701]},"clean_state":"success","latitude":47.649701,"longitude":-122.350592},{"name":"Google","category_code":"search","office":{"type":"Point","coordinates":[-77.027101,38.901113]},"clean_state":"success","latitude":38.901113,"longitude":-77.027101},{"name":"Google","category_code":"search","office":{"type":"Point","coordinates":[145.073608,-37.879234]},"clean_state":"success","latitude":-37.879234,"longitude":145.073608},{"name":"Google","category_code":"search","office":{"type":"Point","coordinates":[138.612396,-34.822723]},"clean_state":"success","latitude":-34.822723,"longitude":138.612396},{"name":"Google","category_code":"search","office":null,"clean_state":"Invalid lat lat and long","latitude":null,"longitude":null},{"name":"Google","category_code":"search","office":null,"clean_state":"Invalid lat lat and long","latitude":null,"longitude":null},{"name":"Google","category_code":"search","office":null,"clean_state":"Invalid lat lat and long","latitude":null,"longitude":null},{"name":"Google","category_code":"search","office":null,"clean_state":"Invalid lat lat and long","latitude":null,"longitude":null},{"name":"Google","category_code":"search","office":null,"clean_state":"Invalid lat lat and long","latitude":null,"longitude":null},{"name":"Google","category_code":"search","office":null,"clean_state":"Invalid lat lat and long","latitude":null,"longitude":null},{"name":"Google","category_code":"search","office":{"type":"Point","coordinates":[77.122261,28.86999]},"clean_state":"success","latitude":28.86999,"longitude":77.122261},{"name":"Google","category_code":"search","office":null,"clean_state":"Invalid lat lat and long","latitude":null,"longitude":null},{"name":"Google","category_code":"search","office":null,"clean_state":"Invalid lat lat and long","latitude":null,"longitude":null},{"name":"Google","category_code":"search","office":null,"clean_state":"Invalid lat lat and long","latitude":null,"longitude":null},{"name":"Google","category_code":"search","office":null,"clean_state":"Invalid lat lat and long","latitude":null,"longitude":null},{"name":"Google","category_code":"search","office":null,"clean_state":"Invalid lat lat and long","latitude":null,"longitude":null},{"name":"Google","category_code":"search","office":null,"clean_state":"Invalid lat lat and long","latitude":null,"longitude":null},{"name":"Google","category_code":"search","office":null,"clean_state":"Invalid lat lat and long","latitude":null,"longitude":null},{"name":"Google","category_code":"search","office":{"type":"Point","coordinates":[10.187799,56.171882]},"clean_state":"success","latitude":56.171882,"longitude":10.187799},{"name":"Google","category_code":"search","office":null,"clean_state":"Invalid lat lat and long","latitude":null,"longitude":null},{"name":"Google","category_code":"search","office":null,"clean_state":"Invalid lat lat and long","latitude":null,"longitude":null},{"name":"Google","category_code":"search","office":{"type":"Point","coordinates":[2.332749,48.869606]},"clean_state":"success","latitude":48.869606,"longitude":2.332749},{"name":"Google","category_code":"search","office":{"type":"Point","coordinates":[9.985266,53.554052]},"clean_state":"success","latitude":53.554052,"longitude":9.985266},{"name":"Google","category_code":"search","office":{"type":"Point","coordinates":[-6.234424,53.339914]},"clean_state":"success","latitude":53.339914,"longitude":-6.234424},{"name":"Google","category_code":"search","office":{"type":"Point","coordinates":[9.195978,45.46381]},"clean_state":"success","latitude":45.46381,"longitude":9.195978},{"name":"Google","category_code":"search","office":{"type":"Point","coordinates":[4.871464,52.337495]},"clean_state":"success","latitude":52.337495,"longitude":4.871464},{"name":"Google","category_code":"search","office":{"type":"Point","coordinates":[10.741047,59.915848]},"clean_state":"success","latitude":59.915848,"longitude":10.741047},{"name":"Google","category_code":"search","office":{"type":"Point","coordinates":[10.412428,63.435324]},"clean_state":"success","latitude":63.435324,"longitude":10.412428},{"name":"Google","category_code":"search","office":{"type":"Point","coordinates":[19.929806,50.063281]},"clean_state":"success","latitude":50.063281,"longitude":19.929806},{"name":"Google","category_code":"search","office":{"type":"Point","coordinates":[17.041942,51.116574]},"clean_state":"success","latitude":51.116574,"longitude":17.041942},{"name":"Google","category_code":"search","office":null,"clean_state":"Invalid lat lat and long","latitude":null,"longitude":null},{"name":"Google","category_code":"search","office":null,"clean_state":"Invalid lat lat and long","latitude":null,"longitude":null},{"name":"Google","category_code":"search","office":null,"clean_state":"Invalid lat lat and long","latitude":null,"longitude":null},{"name":"Google","category_code":"search","office":{"type":"Point","coordinates":[22.126255,65.617491]},"clean_state":"success","latitude":65.617491,"longitude":22.126255},{"name":"Google","category_code":"search","office":{"type":"Point","coordinates":[18.060162,59.332344]},"clean_state":"success","latitude":59.332344,"longitude":18.060162},{"name":"Google","category_code":"search","office":{"type":"Point","coordinates":[8.524864,47.36554]},"clean_state":"success","latitude":47.36554,"longitude":8.524864},{"name":"Google","category_code":"search","office":null,"clean_state":"Invalid lat lat and long","latitude":null,"longitude":null},{"name":"Google","category_code":"search","office":{"type":"Point","coordinates":[-2.250166,53.473606]},"clean_state":"success","latitude":53.473606,"longitude":-2.250166},{"name":"Google","category_code":"search","office":{"type":"Point","coordinates":[-73.567044,45.498588]},"clean_state":"success","latitude":45.498588,"longitude":-73.567044},{"name":"Google","category_code":"search","office":null,"clean_state":"Invalid lat lat and long","latitude":null,"longitude":null},{"name":"Google","category_code":"search","office":{"type":"Point","coordinates":[-80.546381,43.474704]},"clean_state":"success","latitude":43.474704,"longitude":-80.546381},{"name":"Google","category_code":"search","office":null,"clean_state":"Invalid lat lat and long","latitude":null,"longitude":null},{"name":"Google","category_code":"search","office":{"type":"Point","coordinates":[-46.681494,-23.590463]},"clean_state":"success","latitude":-23.590463,"longitude":-46.681494},{"name":"Google","category_code":"search","office":{"type":"Point","coordinates":[-99.030156,19.507519]},"clean_state":"success","latitude":19.507519,"longitude":-99.030156},{"name":"Google","category_code":"search","office":null,"clean_state":"Invalid lat lat and long","latitude":null,"longitude":null},{"name":"Google","category_code":"search","office":null,"clean_state":"Invalid lat lat and long","latitude":null,"longitude":null},{"name":"Google","category_code":"search","office":null,"clean_state":"Invalid lat lat and long","latitude":null,"longitude":null},{"name":"Google","category_code":"search","office":null,"clean_state":"Invalid lat lat and long","latitude":null,"longitude":null},{"name":"Bebo","category_code":"web","office":{"type":"Point","coordinates":[-122.401116,37.782103]},"clean_state":"success","latitude":37.782103,"longitude":-122.401116},{"name":"BabyCenter","category_code":"web","office":{"type":"Point","coordinates":[-122.397977,37.778076]},"clean_state":"success","latitude":37.778076,"longitude":-122.397977},{"name":"PlaceBlogger","category_code":"web","office":{"type":"Point","coordinates":[-95.712891,37.09024]},"clean_state":"success","latitude":37.09024,"longitude":-95.712891},{"name":"CrowdVine","category_code":"web","office":{"type":"Point","coordinates":[-122.511687,37.90077]},"clean_state":"success","latitude":37.90077,"longitude":-122.511687},{"name":"TripHub","category_code":"web","office":{"type":"Point","coordinates":[-122.338793,47.614653]},"clean_state":"success","latitude":47.614653,"longitude":-122.338793},{"name":"FeedBurner","category_code":"web","office":{"type":"Point","coordinates":[-87.628912,41.889474]},"clean_state":"success","latitude":41.889474,"longitude":-87.628912},{"name":"TVtrip","category_code":"web","office":{"type":"Point","coordinates":[2.350987,48.856667]},"clean_state":"success","latitude":48.856667,"longitude":2.350987},{"name":"TheFind","category_code":"ecommerce","office":{"type":"Point","coordinates":[-122.073463,37.391502]},"clean_state":"success","latitude":37.391502,"longitude":-122.073463},{"name":"Dogster","category_code":"web","office":{"type":"Point","coordinates":[-122.400909,37.762681]},"clean_state":"success","latitude":37.762681,"longitude":-122.400909},{"name":"Zazzle","category_code":"ecommerce","office":{"type":"Point","coordinates":[-122.2013557,37.5108541]},"clean_state":"success","latitude":37.5108541,"longitude":-122.2013557},{"name":"WeFi","category_code":"mobile","office":{"type":"Point","coordinates":[-95.712891,37.09024]},"clean_state":"success","latitude":37.09024,"longitude":-95.712891},{"name":"Sway","category_code":"advertising","office":{"type":"Point","coordinates":[-89.522805,43.090756]},"clean_state":"success","latitude":43.090756,"longitude":-89.522805},{"name":"CornerWorld","category_code":"public_relations","office":{"type":"Point","coordinates":[-96.771281,32.914662]},"clean_state":"success","latitude":32.914662,"longitude":-96.771281},{"name":"WatZatSong","category_code":"web","office":{"type":"Point","coordinates":[2.381514,48.866323]},"clean_state":"success","latitude":48.866323,"longitude":2.381514},{"name":"PBworks","category_code":"enterprise","office":null,"clean_state":"Invalid lat lat and long","latitude":null,"longitude":null},{"name":"Loomia","category_code":"web","office":{"type":"Point","coordinates":[-122.404869,37.796396]},"clean_state":"success","latitude":37.796396,"longitude":-122.404869},{"name":"Newsvine","category_code":"web","office":{"type":"Point","coordinates":[-122.358484,47.618599]},"clean_state":"success","latitude":47.618599,"longitude":-122.358484},{"name":"Meebo","category_code":"web","office":{"type":"Point","coordinates":[-122.079017,37.393679]},"clean_state":"success","latitude":37.393679,"longitude":-122.079017},{"name":"Meebo","category_code":"web","office":null,"clean_state":"Invalid lat lat and long","latitude":null,"longitude":null},{"name":"Meebo","category_code":"web","office":null,"clean_state":"Invalid lat lat and long","latitude":null,"longitude":null},{"name":"Meebo","category_code":"web","office":null,"clean_state":"Invalid lat lat and long","latitude":null,"longitude":null},{"name":"Meebo","category_code":"web","office":null,"clean_state":"Invalid lat lat and long","latitude":null,"longitude":null},{"name":"adBrite","category_code":"advertising","office":{"type":"Point","coordinates":[-122.40184,37.779026]},"clean_state":"success","latitude":37.779026,"longitude":-122.40184},{"name":"Eventbrite","category_code":"web","office":{"type":"Point","coordinates":[-122.39071,37.779507]},"clean_state":"success","latitude":37.779507,"longitude":-122.39071},{"name":"FlickIM","category_code":"mobile","office":{"type":"Point","coordinates":[-122.269259,37.870744]},"clean_state":"success","latitude":37.870744,"longitude":-122.269259},{"name":"Terabitz","category_code":"web","office":{"type":"Point","coordinates":[-122.159928,37.437328]},"clean_state":"success","latitude":37.437328,"longitude":-122.159928},{"name":"Jamendo","category_code":"other","office":{"type":"Point","coordinates":[6.1329985,49.6026778]},"clean_state":"success","latitude":49.6026778,"longitude":6.1329985},{"name":"iLike","category_code":"games_video","office":{"type":"Point","coordinates":[-122.323408,47.615313]},"clean_state":"success","latitude":47.615313,"longitude":-122.323408},{"name":"Cuts","category_code":"web","office":{"type":"Point","coordinates":[-117.163841,32.718834]},"clean_state":"success","latitude":32.718834,"longitude":-117.163841},{"name":"Ticketmaster","category_code":"web","office":{"type":"Point","coordinates":[-118.3835957,34.0906602]},"clean_state":"success","latitude":34.0906602,"longitude":-118.3835957},{"name":"Carbonite","category_code":"network_hosting","office":{"type":"Point","coordinates":[-71.076869,42.350571]},"clean_state":"success","latitude":42.350571,"longitude":-71.076869},{"name":"Box","category_code":"network_hosting","office":{"type":"Point","coordinates":[-122.143701,37.425801]},"clean_state":"success","latitude":37.425801,"longitude":-122.143701},{"name":"LinkedIn","category_code":"social","office":{"type":"Point","coordinates":[-122.073635,37.423258]},"clean_state":"success","latitude":37.423258,"longitude":-122.073635},{"name":"Edgeio","category_code":"ecommerce","office":{"type":"Point","coordinates":[-122.161674,37.443058]},"clean_state":"success","latitude":37.443058,"longitude":-122.161674},{"name":"Kaboodle","category_code":"ecommerce","office":{"type":"Point","coordinates":[-122.036301,37.382162]},"clean_state":"success","latitude":37.382162,"longitude":-122.036301},{"name":"Wink","category_code":"search","office":{"type":"Point","coordinates":[-122.072981,37.40047]},"clean_state":"success","latitude":37.40047,"longitude":-122.072981},{"name":"Go2Web20","category_code":"web","office":{"type":"Point","coordinates":[34.7595,32.0554]},"clean_state":"success","latitude":32.0554,"longitude":34.7595},{"name":"GigaOM","category_code":"news","office":{"type":"Point","coordinates":[-122.419204,37.775196]},"clean_state":"success","latitude":37.775196,"longitude":-122.419204},{"name":"GigaOM","category_code":"news","office":{"type":"Point","coordinates":[-74.0059731,40.7143528]},"clean_state":"success","latitude":40.7143528,"longitude":-74.0059731},{"name":"coComment","category_code":"web","office":{"type":"Point","coordinates":[6.139959,46.20381]},"clean_state":"success","latitude":46.20381,"longitude":6.139959},{"name":"Redfin","category_code":"real_estate","office":{"type":"Point","coordinates":[-122.333253,47.603122]},"clean_state":"success","latitude":47.603122,"longitude":-122.333253},{"name":"TechnologyGuide","category_code":"web","office":{"type":"Point","coordinates":[-84.351532,39.06685]},"clean_state":"success","latitude":39.06685,"longitude":-84.351532},{"name":"Conduit","category_code":"advertising","office":{"type":"Point","coordinates":[-122.325248,37.561877]},"clean_state":"success","latitude":37.561877,"longitude":-122.325248},{"name":"Hotelicopter","category_code":"web","office":{"type":"Point","coordinates":[-78.48158,38.030823]},"clean_state":"success","latitude":38.030823,"longitude":-78.48158},{"name":"Techmeme","category_code":"web","office":{"type":"Point","coordinates":[-122.3985871,37.7618242]},"clean_state":"success","latitude":37.7618242,"longitude":-122.3985871},{"name":"MotionDSP","category_code":"software","office":null,"clean_state":"Invalid lat lat and long","latitude":null,"longitude":null},{"name":"RegOnline","category_code":"software","office":{"type":"Point","coordinates":[-105.1110024,39.9195028]},"clean_state":"success","latitude":39.9195028,"longitude":-105.1110024},{"name":"Zvents","category_code":"web","office":{"type":"Point","coordinates":[-122.301534,37.553121]},"clean_state":"success","latitude":37.553121,"longitude":-122.301534},{"name":"Eventful","category_code":"web","office":{"type":"Point","coordinates":[-117.206292,32.872081]},"clean_state":"success","latitude":32.872081,"longitude":-117.206292},{"name":"Eventful","category_code":"web","office":null,"clean_state":"Invalid lat lat and long","latitude":null,"longitude":null},{"name":"Oodle","category_code":"social","office":{"type":"Point","coordinates":[-122.324621,37.563585]},"clean_state":"success","latitude":37.563585,"longitude":-122.324621},{"name":"Simply Hired","category_code":"search","office":{"type":"Point","coordinates":[-122.0780632,37.4219165]},"clean_state":"success","latitude":37.4219165,"longitude":-122.0780632},{"name":"Seesmic","category_code":"web","office":{"type":"Point","coordinates":[-122.419204,37.775196]},"clean_state":"success","latitude":37.775196,"longitude":-122.419204},{"name":"oDesk","category_code":"web","office":{"type":"Point","coordinates":[-122.178557,37.479952]},"clean_state":"success","latitude":37.479952,"longitude":-122.178557},{"name":"Cofoundr","category_code":"network_hosting","office":{"type":"Point","coordinates":[-122.420903,37.796164]},"clean_state":"success","latitude":37.796164,"longitude":-122.420903},{"name":"ooma","category_code":"hardware","office":{"type":"Point","coordinates":[-122.116026,37.451958]},"clean_state":"success","latitude":37.451958,"longitude":-122.116026},{"name":"Recipezaar","category_code":"web","office":{"type":"Point","coordinates":[-122.450942,47.420728]},"clean_state":"success","latitude":47.420728,"longitude":-122.450942},{"name":"Ujogo","category_code":"web","office":{"type":"Point","coordinates":[-122.392861,37.76785]},"clean_state":"success","latitude":37.76785,"longitude":-122.392861},{"name":"Gumiyo","category_code":"web","office":{"type":"Point","coordinates":[-118.601532,34.184598]},"clean_state":"success","latitude":34.184598,"longitude":-118.601532},{"name":"ictv","category_code":"web","office":{"type":"Point","coordinates":[-121.96533,37.255118]},"clean_state":"success","latitude":37.255118,"longitude":-121.96533},{"name":"stylediary","category_code":"web","office":{"type":"Point","coordinates":[-118.350486,34.070436]},"clean_state":"success","latitude":34.070436,"longitude":-118.350486},{"name":"Scripps Networks Interactive","category_code":"web","office":{"type":"Point","coordinates":[-95.712891,37.09024]},"clean_state":"success","latitude":37.09024,"longitude":-95.712891},{"name":"GoingOn","category_code":"software","office":{"type":"Point","coordinates":[-122.392142,37.782263]},"clean_state":"success","latitude":37.782263,"longitude":-122.392142},{"name":"Flixster","category_code":"web","office":{"type":"Point","coordinates":[-122.406676,37.766909]},"clean_state":"success","latitude":37.766909,"longitude":-122.406676},{"name":"Checkster","category_code":"web","office":{"type":"Point","coordinates":[-122.547445,37.905544]},"clean_state":"success","latitude":37.905544,"longitude":-122.547445},{"name":"revlayer","category_code":"advertising","office":{"type":"Point","coordinates":[-73.985506,40.757929]},"clean_state":"success","latitude":40.757929,"longitude":-73.985506},{"name":"MyPublicInfo","category_code":"web","office":{"type":"Point","coordinates":[-77.072003,38.897428]},"clean_state":"success","latitude":38.897428,"longitude":-77.072003},{"name":"Piczo","category_code":"network_hosting","office":{"type":"Point","coordinates":[-122.398479,37.793703]},"clean_state":"success","latitude":37.793703,"longitude":-122.398479},{"name":"PhotoBox","category_code":"ecommerce","office":null,"clean_state":"Invalid lat lat and long","latitude":null,"longitude":null},{"name":"Parakey","category_code":"web","office":{"type":"Point","coordinates":[-122.072981,37.40047]},"clean_state":"success","latitude":37.40047,"longitude":-122.072981},{"name":"Spreadshirt","category_code":"advertising","office":{"type":"Point","coordinates":[-80.004195,40.437985]},"clean_state":"success","latitude":40.437985,"longitude":-80.004195},{"name":"Cyworld","category_code":"web","office":null,"clean_state":"Invalid lat lat and long","latitude":null,"longitude":null},{"name":"IceRocket","category_code":"search","office":{"type":"Point","coordinates":[-96.797111,32.781078]},"clean_state":"success","latitude":32.781078,"longitude":-96.797111},{"name":"Bazaarvoice","category_code":"software","office":{"type":"Point","coordinates":[-97.717667,30.407545]},"clean_state":"success","latitude":30.407545,"longitude":-97.717667},{"name":"Socialtext","category_code":"enterprise","office":{"type":"Point","coordinates":[-122.1615,37.442949]},"clean_state":"success","latitude":37.442949,"longitude":-122.1615},{"name":"spigit","category_code":"software","office":{"type":"Point","coordinates":[-121.8731805,37.6637279]},"clean_state":"success","latitude":37.6637279,"longitude":-121.8731805},{"name":"spigit","category_code":"software","office":{"type":"Point","coordinates":[-77.3592746,38.9590083]},"clean_state":"success","latitude":38.9590083,"longitude":-77.3592746},{"name":"spigit","category_code":"software","office":{"type":"Point","coordinates":[-0.1394759,51.5170385]},"clean_state":"success","latitude":51.5170385,"longitude":-0.1394759},{"name":"barablu","category_code":"mobile","office":null,"clean_state":"Invalid lat lat and long","latitude":null,"longitude":null},{"name":"Vast","category_code":"ecommerce","office":{"type":"Point","coordinates":[-122.397759,37.787183]},"clean_state":"success","latitude":37.787183,"longitude":-122.397759},{"name":"Vast","category_code":"ecommerce","office":null,"clean_state":"Invalid lat lat and long","latitude":null,"longitude":null},{"name":"ConnectMeAnywhere","category_code":"web","office":{"type":"Point","coordinates":[-0.205349,51.514935]},"clean_state":"success","latitude":51.514935,"longitude":-0.205349},{"name":"Ohloh","category_code":"web","office":null,"clean_state":"Invalid lat lat and long","latitude":null,"longitude":null},{"name":"Clipperz","category_code":"web","office":{"type":"Point","coordinates":[11.978686,44.418166]},"clean_state":"success","latitude":44.418166,"longitude":11.978686},{"name":"PowerReviews","category_code":"social","office":{"type":"Point","coordinates":[-122.393041,37.779558]},"clean_state":"success","latitude":37.779558,"longitude":-122.393041},{"name":"PowerReviews","category_code":"social","office":{"type":"Point","coordinates":[-0.104408,51.527099]},"clean_state":"success","latitude":51.527099,"longitude":-0.104408},{"name":"Tagged","category_code":"social","office":{"type":"Point","coordinates":[-122.4186,37.7753]},"clean_state":"success","latitude":37.7753,"longitude":-122.4186},{"name":"ScanScout","category_code":"advertising","office":{"type":"Point","coordinates":[-71.051931,42.340889]},"clean_state":"success","latitude":42.340889,"longitude":-71.051931},{"name":"ScanScout","category_code":"advertising","office":{"type":"Point","coordinates":[-73.993158,40.739833]},"clean_state":"success","latitude":40.739833,"longitude":-73.993158},{"name":"ScanScout","category_code":"advertising","office":{"type":"Point","coordinates":[-118.459995,34.050887]},"clean_state":"success","latitude":34.050887,"longitude":-118.459995},{"name":"37signals","category_code":"public_relations","office":{"type":"Point","coordinates":[-87.6557234,41.8892178]},"clean_state":"success","latitude":41.8892178,"longitude":-87.6557234},{"name":"hi5","category_code":"games_video","office":{"type":"Point","coordinates":[-122.400558,37.788668]},"clean_state":"success","latitude":37.788668,"longitude":-122.400558},{"name":"Nintendo","category_code":"games_video","office":{"type":"Point","coordinates":[138.252924,36.204824]},"clean_state":"success","latitude":36.204824,"longitude":138.252924},{"name":"LiveWorld","category_code":"web","office":{"type":"Point","coordinates":[-121.979453,37.321798]},"clean_state":"success","latitude":37.321798,"longitude":-121.979453},{"name":"LiveWorld","category_code":"web","office":{"type":"Point","coordinates":[-0.126236,51.500152]},"clean_state":"success","latitude":51.500152,"longitude":-0.126236},{"name":"Cerado","category_code":"web","office":{"type":"Point","coordinates":[-122.415375,37.774321]},"clean_state":"success","latitude":37.774321,"longitude":-122.415375},{"name":"Jaxtr","category_code":"mobile","office":{"type":"Point","coordinates":[-122.18676,37.451026]},"clean_state":"success","latitude":37.451026,"longitude":-122.18676},{"name":"Indeed","category_code":"web","office":{"type":"Point","coordinates":[-73.558082,41.038155]},"clean_state":"success","latitude":41.038155,"longitude":-73.558082},{"name":"Indeed","category_code":"web","office":null,"clean_state":"Invalid lat lat and long","latitude":null,"longitude":null},{"name":"ONEsite","category_code":"other","office":{"type":"Point","coordinates":[-97.5736,35.612679]},"clean_state":"success","latitude":35.612679,"longitude":-97.5736},{"name":"introNetworks","category_code":"web","office":{"type":"Point","coordinates":[-119.641821,34.42071]},"clean_state":"success","latitude":34.42071,"longitude":-119.641821},{"name":"Kwiqq","category_code":"web","office":null,"clean_state":"Invalid lat lat and long","latitude":null,"longitude":null},{"name":"Wallhogs","category_code":"public_relations","office":{"type":"Point","coordinates":[-79.462703,40.30305]},"clean_state":"success","latitude":40.30305,"longitude":-79.462703},{"name":"NetSuite","category_code":"enterprise","office":{"type":"Point","coordinates":[-122.327323,37.536172]},"clean_state":"success","latitude":37.536172,"longitude":-122.327323},{"name":"WikiYou","category_code":"search","office":null,"clean_state":"Invalid lat lat and long","latitude":null,"longitude":null},{"name":"Respectance","category_code":"web","office":{"type":"Point","coordinates":[-122.321836,37.55909]},"clean_state":"success","latitude":37.55909,"longitude":-122.321836},{"name":"Curse","category_code":"games_video","office":{"type":"Point","coordinates":[-122.399972,37.787092]},"clean_state":"success","latitude":37.787092,"longitude":-122.399972},{"name":"Curse","category_code":"games_video","office":null,"clean_state":"Invalid lat lat and long","latitude":null,"longitude":null},{"name":"GoLightly","category_code":"software","office":{"type":"Point","coordinates":[-122.537302,37.898575]},"clean_state":"success","latitude":37.898575,"longitude":-122.537302},{"name":"Going","category_code":"web","office":{"type":"Point","coordinates":[-71.060864,42.355672]},"clean_state":"success","latitude":42.355672,"longitude":-71.060864},{"name":"eBuddy","category_code":"messaging","office":{"type":"Point","coordinates":[4.8919457,52.3640933]},"clean_state":"success","latitude":52.3640933,"longitude":4.8919457},{"name":"eBuddy","category_code":"messaging","office":{"type":"Point","coordinates":[-122.410943,37.787683]},"clean_state":"success","latitude":37.787683,"longitude":-122.410943},{"name":"eBuddy","category_code":"messaging","office":{"type":"Point","coordinates":[-0.126236,51.500152]},"clean_state":"success","latitude":51.500152,"longitude":-0.126236},{"name":"Jaman","category_code":"games_video","office":{"type":"Point","coordinates":[-122.327323,37.536172]},"clean_state":"success","latitude":37.536172,"longitude":-122.327323},{"name":"DZOIC","category_code":"web","office":{"type":"Point","coordinates":[-95.712891,37.09024]},"clean_state":"success","latitude":37.09024,"longitude":-95.712891},{"name":"PeerMe","category_code":"games_video","office":{"type":"Point","coordinates":[-122.090188,37.419819]},"clean_state":"success","latitude":37.419819,"longitude":-122.090188},{"name":"Kiptronic","category_code":"advertising","office":{"type":"Point","coordinates":[-122.402349,37.792394]},"clean_state":"success","latitude":37.792394,"longitude":-122.402349},{"name":"Zenfolio","category_code":"network_hosting","office":{"type":"Point","coordinates":[-122.1802812,37.4484914]},"clean_state":"success","latitude":37.4484914,"longitude":-122.1802812},{"name":"Grockit","category_code":"social","office":{"type":"Point","coordinates":[-122.419204,37.775196]},"clean_state":"success","latitude":37.775196,"longitude":-122.419204},{"name":"FeVote","category_code":"web","office":{"type":"Point","coordinates":[-122.417928,37.779392]},"clean_state":"success","latitude":37.779392,"longitude":-122.417928},{"name":"JumpBox","category_code":"software","office":{"type":"Point","coordinates":[-111.944967,33.429864]},"clean_state":"success","latitude":33.429864,"longitude":-111.944967},{"name":"Vuze","category_code":"games_video","office":{"type":"Point","coordinates":[-122.2262606,37.4858654]},"clean_state":"success","latitude":37.4858654,"longitude":-122.2262606},{"name":"CollegeWikis","category_code":"web","office":{"type":"Point","coordinates":[-95.712891,37.09024]},"clean_state":"success","latitude":37.09024,"longitude":-95.712891},{"name":"LongJump","category_code":"enterprise","office":{"type":"Point","coordinates":[-121.992132,37.384651]},"clean_state":"success","latitude":37.384651,"longitude":-121.992132},{"name":"Relationals","category_code":"web","office":{"type":"Point","coordinates":[-121.992132,37.384651]},"clean_state":"success","latitude":37.384651,"longitude":-121.992132},{"name":"ProfileBuilder","category_code":"public_relations","office":{"type":"Point","coordinates":[-83.215454,42.545787]},"clean_state":"success","latitude":42.545787,"longitude":-83.215454},{"name":"Wishpot","category_code":"ecommerce","office":{"type":"Point","coordinates":[-122.347533,47.620716]},"clean_state":"success","latitude":47.620716,"longitude":-122.347533},{"name":"DOmedia","category_code":"advertising","office":{"type":"Point","coordinates":[-83.005038,39.967704]},"clean_state":"success","latitude":39.967704,"longitude":-83.005038},{"name":"Truemors","category_code":"web","office":{"type":"Point","coordinates":[-122.163189,37.446687]},"clean_state":"success","latitude":37.446687,"longitude":-122.163189},{"name":"Nononina","category_code":"web","office":{"type":"Point","coordinates":[-119.306607,37.269175]},"clean_state":"success","latitude":37.269175,"longitude":-119.306607},{"name":"Phonezoo","category_code":"web","office":{"type":"Point","coordinates":[-121.991471,37.386376]},"clean_state":"success","latitude":37.386376,"longitude":-121.991471},{"name":"PodTech","category_code":"games_video","office":{"type":"Point","coordinates":[-122.154176,37.408256]},"clean_state":"success","latitude":37.408256,"longitude":-122.154176},{"name":"NowPublic","category_code":"web","office":{"type":"Point","coordinates":[-123.103986,49.283376]},"clean_state":"success","latitude":49.283376,"longitude":-123.103986},{"name":"Crackle","category_code":"games_video","office":{"type":"Point","coordinates":[-118.401579,34.017506]},"clean_state":"success","latitude":34.017506,"longitude":-118.401579},{"name":"Clipmarks","category_code":"photo_video","office":{"type":"Point","coordinates":[-73.985506,40.757929]},"clean_state":"success","latitude":40.757929,"longitude":-73.985506},{"name":"PayScale","category_code":"software","office":{"type":"Point","coordinates":[-122.3276962,47.5999337]},"clean_state":"success","latitude":47.5999337,"longitude":-122.3276962},{"name":"Forbes","category_code":"web","office":{"type":"Point","coordinates":[-73.993302,40.736416]},"clean_state":"success","latitude":40.736416,"longitude":-73.993302},{"name":"Truphone","category_code":"mobile","office":null,"clean_state":"Invalid lat lat and long","latitude":null,"longitude":null},{"name":"Truphone","category_code":"mobile","office":null,"clean_state":"Invalid lat lat and long","latitude":null,"longitude":null},{"name":"Truphone","category_code":"mobile","office":null,"clean_state":"Invalid lat lat and long","latitude":null,"longitude":null},{"name":"Truphone","category_code":"mobile","office":null,"clean_state":"Invalid lat lat and long","latitude":null,"longitude":null},{"name":"Truphone","category_code":"mobile","office":null,"clean_state":"Invalid lat lat and long","latitude":null,"longitude":null},{"name":"Truphone","category_code":"mobile","office":null,"clean_state":"Invalid lat lat and long","latitude":null,"longitude":null},{"name":"Boonex","category_code":"software","office":{"type":"Point","coordinates":[150.981801,-33.722577]},"clean_state":"success","latitude":-33.722577,"longitude":150.981801},{"name":"Sony","category_code":"hardware","office":{"type":"Point","coordinates":[-95.712891,37.09024]},"clean_state":"success","latitude":37.09024,"longitude":-95.712891},{"name":"Hotswap","category_code":"ecommerce","office":{"type":"Point","coordinates":[-122.268403,37.872222]},"clean_state":"success","latitude":37.872222,"longitude":-122.268403},{"name":"Lotame","category_code":"advertising","office":{"type":"Point","coordinates":[-76.77514,39.205649]},"clean_state":"success","latitude":39.205649,"longitude":-76.77514},{"name":"Lotame","category_code":"advertising","office":{"type":"Point","coordinates":[-73.995487,40.753631]},"clean_state":"success","latitude":40.753631,"longitude":-73.995487},{"name":"Lotame","category_code":"advertising","office":{"type":"Point","coordinates":[-71.056604,42.359146]},"clean_state":"success","latitude":42.359146,"longitude":-71.056604},{"name":"Lotame","category_code":"advertising","office":null,"clean_state":"Invalid lat lat and long","latitude":null,"longitude":null},{"name":"Lotame","category_code":"advertising","office":null,"clean_state":"Invalid lat lat and long","latitude":null,"longitude":null},{"name":"Lotame","category_code":"advertising","office":null,"clean_state":"Invalid lat lat and long","latitude":null,"longitude":null},{"name":"Adobe Systems","category_code":"software","office":{"type":"Point","coordinates":[-121.877636,37.320052]},"clean_state":"success","latitude":37.320052,"longitude":-121.877636},{"name":"IntenseDebate","category_code":"web","office":{"type":"Point","coordinates":[-105.276843,40.010492]},"clean_state":"success","latitude":40.010492,"longitude":-105.276843},{"name":"Rebtel","category_code":"mobile","office":{"type":"Point","coordinates":[18.1582777,59.3167843]},"clean_state":"success","latitude":59.3167843,"longitude":18.1582777},{"name":"Reddit","category_code":"web","office":{"type":"Point","coordinates":[-122.395257,37.780883]},"clean_state":"success","latitude":37.780883,"longitude":-122.395257},{"name":"Wikia","category_code":"web","office":null,"clean_state":"Invalid lat lat and long","latitude":null,"longitude":null},{"name":"Buxfer","category_code":"web","office":{"type":"Point","coordinates":[-122.073003,37.400465]},"clean_state":"success","latitude":37.400465,"longitude":-122.073003},{"name":"BuddyTV","category_code":"games_video","office":{"type":"Point","coordinates":[-122.356756,47.61968]},"clean_state":"success","latitude":47.61968,"longitude":-122.356756},{"name":"Qualcomm","category_code":"semiconductor","office":{"type":"Point","coordinates":[-117.195414,32.89746]},"clean_state":"success","latitude":32.89746,"longitude":-117.195414},{"name":"SplashCast","category_code":"advertising","office":{"type":"Point","coordinates":[-95.712891,37.09024]},"clean_state":"success","latitude":37.09024,"longitude":-95.712891},{"name":"boo-box","category_code":"advertising","office":{"type":"Point","coordinates":[-46.679287,-23.558584]},"clean_state":"success","latitude":-23.558584,"longitude":-46.679287},{"name":"Hightail","category_code":"network_hosting","office":{"type":"Point","coordinates":[-121.935688,37.288974]},"clean_state":"success","latitude":37.288974,"longitude":-121.935688},{"name":"Amazon","category_code":"ecommerce","office":{"type":"Point","coordinates":[-122.317295,47.5923]},"clean_state":"success","latitude":47.5923,"longitude":-122.317295},{"name":"Nimbuzz","category_code":"mobile","office":{"type":"Point","coordinates":[4.5464658,51.9122575]},"clean_state":"success","latitude":51.9122575,"longitude":4.5464658},{"name":"Nimbuzz","category_code":"mobile","office":null,"clean_state":"Invalid lat lat and long","latitude":null,"longitude":null},{"name":"Tangler","category_code":"web","office":{"type":"Point","coordinates":[-122.084171,37.386665]},"clean_state":"success","latitude":37.386665,"longitude":-122.084171},{"name":"TextPayMe","category_code":"web","office":{"type":"Point","coordinates":[-122.115633,47.672229]},"clean_state":"success","latitude":47.672229,"longitude":-122.115633},{"name":"Retrevo","category_code":"web","office":{"type":"Point","coordinates":[-122.034021,37.368594]},"clean_state":"success","latitude":37.368594,"longitude":-122.034021},{"name":"KushCash","category_code":"mobile","office":{"type":"Point","coordinates":[-117.727468,33.58273]},"clean_state":"success","latitude":33.58273,"longitude":-117.727468},{"name":"BillMonk","category_code":"web","office":{"type":"Point","coordinates":[-122.347533,47.620716]},"clean_state":"success","latitude":47.620716,"longitude":-122.347533},{"name":"obopay","category_code":"mobile","office":{"type":"Point","coordinates":[-122.258037,37.524729]},"clean_state":"success","latitude":37.524729,"longitude":-122.258037},{"name":"Brightcove","category_code":"enterprise","office":{"type":"Point","coordinates":[-71.086596,42.362993]},"clean_state":"success","latitude":42.362993,"longitude":-71.086596},{"name":"Brightcove","category_code":"enterprise","office":null,"clean_state":"Invalid lat lat and long","latitude":null,"longitude":null},{"name":"Brightcove","category_code":"enterprise","office":null,"clean_state":"Invalid lat lat and long","latitude":null,"longitude":null},{"name":"Brightcove","category_code":"enterprise","office":null,"clean_state":"Invalid lat lat and long","latitude":null,"longitude":null},{"name":"Brightcove","category_code":"enterprise","office":null,"clean_state":"Invalid lat lat and long","latitude":null,"longitude":null},{"name":"Brightcove","category_code":"enterprise","office":null,"clean_state":"Invalid lat lat and long","latitude":null,"longitude":null},{"name":"Brightcove","category_code":"enterprise","office":null,"clean_state":"Invalid lat lat and long","latitude":null,"longitude":null},{"name":"MeeMix","category_code":"web","office":{"type":"Point","coordinates":[34.7595,32.0554]},"clean_state":"success","latitude":32.0554,"longitude":34.7595},{"name":"Citizenbay","category_code":"web","office":{"type":"Point","coordinates":[-95.712891,37.09024]},"clean_state":"success","latitude":37.09024,"longitude":-95.712891},{"name":"Vudu","category_code":"hardware","office":null,"clean_state":"Invalid lat lat and long","latitude":null,"longitude":null},{"name":"TalkPlus","category_code":"web","office":{"type":"Point","coordinates":[-122.300246,37.553743]},"clean_state":"success","latitude":37.553743,"longitude":-122.300246},{"name":"Alstrasoft","category_code":"software","office":null,"clean_state":"Invalid lat lat and long","latitude":null,"longitude":null},{"name":"PermissionTV","category_code":"games_video","office":{"type":"Point","coordinates":[-71.258466,42.417268]},"clean_state":"success","latitude":42.417268,"longitude":-71.258466},{"name":"WebbAlert","category_code":"games_video","office":{"type":"Point","coordinates":[-118.243425,34.052187]},"clean_state":"success","latitude":34.052187,"longitude":-118.243425},{"name":"WallStrip","category_code":"games_video","office":{"type":"Point","coordinates":[-95.712891,37.09024]},"clean_state":"success","latitude":37.09024,"longitude":-95.712891},{"name":"Rocketboom","category_code":"news","office":{"type":"Point","coordinates":[-73.97785,40.797364]},"clean_state":"success","latitude":40.797364,"longitude":-73.97785},{"name":"Citysearch","category_code":"web","office":{"type":"Point","coordinates":[-118.38428,34.090932]},"clean_state":"success","latitude":34.090932,"longitude":-118.38428},{"name":"The Walt Disney Company","category_code":"games_video","office":{"type":"Point","coordinates":[-118.324987,34.156802]},"clean_state":"success","latitude":34.156802,"longitude":-118.324987},{"name":"IAC","category_code":"news","office":{"type":"Point","coordinates":[-74.007646,40.745172]},"clean_state":"success","latitude":40.745172,"longitude":-74.007646},{"name":"PayPal","category_code":"finance","office":{"type":"Point","coordinates":[-121.927696,37.294465]},"clean_state":"success","latitude":37.294465,"longitude":-121.927696},{"name":"Snapfish","category_code":"network_hosting","office":{"type":"Point","coordinates":[-122.396689,37.78554]},"clean_state":"success","latitude":37.78554,"longitude":-122.396689},{"name":"Kaneva","category_code":"web","office":{"type":"Point","coordinates":[-84.350663,33.916374]},"clean_state":"success","latitude":33.916374,"longitude":-84.350663},{"name":"IMVU","category_code":"web","office":{"type":"Point","coordinates":[-122.0727749,37.3927975]},"clean_state":"success","latitude":37.3927975,"longitude":-122.0727749},{"name":"Mattel","category_code":"web","office":{"type":"Point","coordinates":[-118.391852,33.920296]},"clean_state":"success","latitude":33.920296,"longitude":-118.391852},{"name":"madKast","category_code":"web","office":{"type":"Point","coordinates":[-105.276843,40.010492]},"clean_state":"success","latitude":40.010492,"longitude":-105.276843},{"name":"Nirvanix","category_code":"enterprise","office":{"type":"Point","coordinates":[-117.210595,32.877656]},"clean_state":"success","latitude":32.877656,"longitude":-117.210595},{"name":"AOL","category_code":"web","office":{"type":"Point","coordinates":[-73.9919311,40.7311317]},"clean_state":"success","latitude":40.7311317,"longitude":-73.9919311},{"name":"Outdoorzy","category_code":"network_hosting","office":{"type":"Point","coordinates":[-86.463026,37.018244]},"clean_state":"success","latitude":37.018244,"longitude":-86.463026},{"name":"Userplane","category_code":"enterprise","office":{"type":"Point","coordinates":[-118.495566,34.01676]},"clean_state":"success","latitude":34.01676,"longitude":-118.495566},{"name":"Scrybe","category_code":"enterprise","office":{"type":"Point","coordinates":[-74.761403,40.270666]},"clean_state":"success","latitude":40.270666,"longitude":-74.761403},{"name":"Meetro","category_code":"web","office":{"type":"Point","coordinates":[-122.159928,37.437328]},"clean_state":"success","latitude":37.437328,"longitude":-122.159928},{"name":"Webkinz","category_code":"web","office":{"type":"Point","coordinates":[-79.549577,43.76969]},"clean_state":"success","latitude":43.76969,"longitude":-79.549577},{"name":"Zwinky","category_code":"web","office":null,"clean_state":"Invalid lat lat and long","latitude":null,"longitude":null},{"name":"Aniboom","category_code":"games_video","office":{"type":"Point","coordinates":[34.851612,31.046051]},"clean_state":"success","latitude":31.046051,"longitude":34.851612},{"name":"Mokitown","category_code":"web","office":{"type":"Point","coordinates":[-95.712891,37.09024]},"clean_state":"success","latitude":37.09024,"longitude":-95.712891},{"name":"MyToons","category_code":"games_video","office":{"type":"Point","coordinates":[-98.487764,29.427051]},"clean_state":"success","latitude":29.427051,"longitude":-98.487764},{"name":"ActiveWorlds","category_code":"games_video","office":{"type":"Point","coordinates":[-70.8873327,42.7973978]},"clean_state":"success","latitude":42.7973978,"longitude":-70.8873327},{"name":"ActiveWorlds","category_code":"games_video","office":null,"clean_state":"Invalid lat lat and long","latitude":null,"longitude":null},{"name":"Sulake","category_code":"web","office":{"type":"Point","coordinates":[24.945937,60.165166]},"clean_state":"success","latitude":60.165166,"longitude":24.945937},{"name":"Neopets","category_code":"web","office":{"type":"Point","coordinates":[-95.712891,37.09024]},"clean_state":"success","latitude":37.09024,"longitude":-95.712891},{"name":"Dubit","category_code":"web","office":null,"clean_state":"Invalid lat lat and long","latitude":null,"longitude":null},{"name":"KnockaTV","category_code":"games_video","office":{"type":"Point","coordinates":[34.851612,31.046051]},"clean_state":"success","latitude":31.046051,"longitude":34.851612},{"name":"Faketown","category_code":"web","office":{"type":"Point","coordinates":[-118.472721,33.988337]},"clean_state":"success","latitude":33.988337,"longitude":-118.472721},{"name":"Millsberry","category_code":"web","office":{"type":"Point","coordinates":[-95.712891,37.09024]},"clean_state":"success","latitude":37.09024,"longitude":-95.712891},{"name":"Viagogo","category_code":"ecommerce","office":{"type":"Point","coordinates":[-0.126236,51.500152]},"clean_state":"success","latitude":51.500152,"longitude":-0.126236},{"name":"Echo","category_code":"enterprise","office":{"type":"Point","coordinates":[-122.1879633,38.0729365]},"clean_state":"success","latitude":38.0729365,"longitude":-122.1879633},{"name":"GreatCall","category_code":"mobile","office":{"type":"Point","coordinates":[-117.265191,32.964294]},"clean_state":"success","latitude":32.964294,"longitude":-117.265191},{"name":"Omnifuse","category_code":"web","office":{"type":"Point","coordinates":[-117.928351,33.610083]},"clean_state":"success","latitude":33.610083,"longitude":-117.928351},{"name":"Pickle","category_code":"web","office":{"type":"Point","coordinates":[-77.081732,38.892371]},"clean_state":"success","latitude":38.892371,"longitude":-77.081732},{"name":"INgage Networks","category_code":"software","office":{"type":"Point","coordinates":[-81.788104,26.246414]},"clean_state":"success","latitude":26.246414,"longitude":-81.788104},{"name":"INgage Networks","category_code":"software","office":null,"clean_state":"Invalid lat lat and long","latitude":null,"longitude":null},{"name":"Strayform","category_code":"games_video","office":{"type":"Point","coordinates":[-100.076888,31.169036]},"clean_state":"success","latitude":31.169036,"longitude":-100.076888},{"name":"SelectMinds","category_code":"network_hosting","office":{"type":"Point","coordinates":[-73.990004,40.740251]},"clean_state":"success","latitude":40.740251,"longitude":-73.990004},{"name":"Revver","category_code":"games_video","office":{"type":"Point","coordinates":[-118.243425,34.052187]},"clean_state":"success","latitude":34.052187,"longitude":-118.243425},{"name":"HireAHelper","category_code":"web","office":null,"clean_state":"Invalid lat lat and long","latitude":null,"longitude":null},{"name":"Techstars","category_code":"finance","office":{"type":"Point","coordinates":[-105.276843,40.010492]},"clean_state":"success","latitude":40.010492,"longitude":-105.276843},{"name":"MindTouch","category_code":"enterprise","office":{"type":"Point","coordinates":[-117.167831,32.720656]},"clean_state":"success","latitude":32.720656,"longitude":-117.167831},{"name":"Flock","category_code":"web","office":{"type":"Point","coordinates":[-122.228843,37.491356]},"clean_state":"success","latitude":37.491356,"longitude":-122.228843},{"name":"Social Platform","category_code":"web","office":{"type":"Point","coordinates":[-118.327071,34.101617]},"clean_state":"success","latitude":34.101617,"longitude":-118.327071},{"name":"webcrossing","category_code":"web","office":{"type":"Point","coordinates":[-122.399646,37.794649]},"clean_state":"success","latitude":37.794649,"longitude":-122.399646},{"name":"Kontera","category_code":"advertising","office":{"type":"Point","coordinates":[-122.411157,37.767575]},"clean_state":"success","latitude":37.767575,"longitude":-122.411157},{"name":"Sportingo","category_code":"web","office":{"type":"Point","coordinates":[-96.76492,17.08881]},"clean_state":"success","latitude":17.08881,"longitude":-96.76492},{"name":"Hewlett-Packard","category_code":"web","office":{"type":"Point","coordinates":[-122.159928,37.437328]},"clean_state":"success","latitude":37.437328,"longitude":-122.159928},{"name":"Hewlett-Packard","category_code":"web","office":null,"clean_state":"Invalid lat lat and long","latitude":null,"longitude":null},{"name":"ChaCha","category_code":"advertising","office":{"type":"Point","coordinates":[-86.130347,39.998641]},"clean_state":"success","latitude":39.998641,"longitude":-86.130347},{"name":"ChaCha","category_code":"advertising","office":null,"clean_state":"Invalid lat lat and long","latitude":null,"longitude":null},{"name":"Splashup","category_code":"web","office":{"type":"Point","coordinates":[-95.712891,37.09024]},"clean_state":"success","latitude":37.09024,"longitude":-95.712891},{"name":"Metacafe","category_code":"games_video","office":{"type":"Point","coordinates":[-122.159928,37.437328]},"clean_state":"success","latitude":37.437328,"longitude":-122.159928},{"name":"Curverider","category_code":"network_hosting","office":{"type":"Point","coordinates":[-1.197534,51.785428]},"clean_state":"success","latitude":51.785428,"longitude":-1.197534},{"name":"TimeBridge","category_code":"web","office":null,"clean_state":"Invalid lat lat and long","latitude":null,"longitude":null},{"name":"Akamai Technologies","category_code":"enterprise","office":{"type":"Point","coordinates":[-71.08907,42.364059]},"clean_state":"success","latitude":42.364059,"longitude":-71.08907},{"name":"Dropbox","category_code":"software","office":{"type":"Point","coordinates":[-122.4084994,37.7909427]},"clean_state":"success","latitude":37.7909427,"longitude":-122.4084994},{"name":"Dropbox","category_code":"software","office":null,"clean_state":"Invalid lat lat and long","latitude":null,"longitude":null},{"name":"MobiTV","category_code":"other","office":null,"clean_state":"Invalid lat lat and long","latitude":null,"longitude":null},{"name":"IODA","category_code":"games_video","office":{"type":"Point","coordinates":[-122.396744,37.780134]},"clean_state":"success","latitude":37.780134,"longitude":-122.396744},{"name":"Negonation","category_code":"web","office":{"type":"Point","coordinates":[-3.74922,40.463667]},"clean_state":"success","latitude":40.463667,"longitude":-3.74922},{"name":"SomethingSimpler","category_code":"search","office":{"type":"Point","coordinates":[-123.138565,49.263588]},"clean_state":"success","latitude":49.263588,"longitude":-123.138565},{"name":"Snocap","category_code":"games_video","office":null,"clean_state":"Invalid lat lat and long","latitude":null,"longitude":null},{"name":"Yoomba","category_code":"web","office":{"type":"Point","coordinates":[-122.169472,37.48413]},"clean_state":"success","latitude":37.48413,"longitude":-122.169472},{"name":"Solfo","category_code":"search","office":{"type":"Point","coordinates":[-118.3489963,34.1872813]},"clean_state":"success","latitude":34.1872813,"longitude":-118.3489963},{"name":"Jimdo","category_code":"web","office":null,"clean_state":"Invalid lat lat and long","latitude":null,"longitude":null},{"name":"Jimdo","category_code":"web","office":null,"clean_state":"Invalid lat lat and long","latitude":null,"longitude":null},{"name":"Jimdo","category_code":"web","office":null,"clean_state":"Invalid lat lat and long","latitude":null,"longitude":null},{"name":"Jimdo","category_code":"web","office":null,"clean_state":"Invalid lat lat and long","latitude":null,"longitude":null},{"name":"YellowBot","category_code":"search","office":{"type":"Point","coordinates":[-118.3489963,34.1872813]},"clean_state":"success","latitude":34.1872813,"longitude":-118.3489963},{"name":"MDJunction","category_code":"web","office":null,"clean_state":"Invalid lat lat and long","latitude":null,"longitude":null},{"name":"TokBox","category_code":"messaging","office":{"type":"Point","coordinates":[-122.39071,37.779507]},"clean_state":"success","latitude":37.779507,"longitude":-122.39071},{"name":"TokBox","category_code":"messaging","office":null,"clean_state":"Invalid lat lat and long","latitude":null,"longitude":null},{"name":"TokBox","category_code":"messaging","office":null,"clean_state":"Invalid lat lat and long","latitude":null,"longitude":null},{"name":"TokBox","category_code":"messaging","office":null,"clean_state":"Invalid lat lat and long","latitude":null,"longitude":null},{"name":"Sampa","category_code":"web","office":{"type":"Point","coordinates":[-122.135521,47.682233]},"clean_state":"success","latitude":47.682233,"longitude":-122.135521},{"name":"RealEditor","category_code":"web","office":{"type":"Point","coordinates":[-77.236968,38.805114]},"clean_state":"success","latitude":38.805114,"longitude":-77.236968},{"name":"Six Apart","category_code":"enterprise","office":{"type":"Point","coordinates":[139.7326754,35.6725213]},"clean_state":"success","latitude":35.6725213,"longitude":139.7326754},{"name":"Yola","category_code":"web","office":{"type":"Point","coordinates":[-122.3954751,37.7911148]},"clean_state":"success","latitude":37.7911148,"longitude":-122.3954751},{"name":"Yola","category_code":"web","office":null,"clean_state":"Invalid lat lat and long","latitude":null,"longitude":null},{"name":"Weebly","category_code":"web","office":{"type":"Point","coordinates":[-122.400729,37.795555]},"clean_state":"success","latitude":37.795555,"longitude":-122.400729},{"name":"Kongregate","category_code":"games_video","office":{"type":"Point","coordinates":[-122.401245,37.786942]},"clean_state":"success","latitude":37.786942,"longitude":-122.401245},{"name":"BitTorrent","category_code":"web","office":{"type":"Point","coordinates":[-122.394668,37.790998]},"clean_state":"success","latitude":37.790998,"longitude":-122.394668},{"name":"DanceJam","category_code":"games_video","office":{"type":"Point","coordinates":[-122.407959,37.781557]},"clean_state":"success","latitude":37.781557,"longitude":-122.407959},{"name":"Socialthing","category_code":"network_hosting","office":{"type":"Point","coordinates":[-105.2762236,40.0186731]},"clean_state":"success","latitude":40.0186731,"longitude":-105.2762236},{"name":"EventVue","category_code":"public_relations","office":{"type":"Point","coordinates":[-105.276843,40.010492]},"clean_state":"success","latitude":40.010492,"longitude":-105.276843},{"name":"Filtrbox","category_code":"web","office":{"type":"Point","coordinates":[-105.276843,40.010492]},"clean_state":"success","latitude":40.010492,"longitude":-105.276843},{"name":"Bountii","category_code":"ecommerce","office":{"type":"Point","coordinates":[-122.159928,37.437328]},"clean_state":"success","latitude":37.437328,"longitude":-122.159928},{"name":"Inneractive","category_code":"advertising","office":{"type":"Point","coordinates":[-122.3229235,37.5646055]},"clean_state":"success","latitude":37.5646055,"longitude":-122.3229235},{"name":"Eventbee","category_code":"web","office":{"type":"Point","coordinates":[-122.007172,37.383779]},"clean_state":"success","latitude":37.383779,"longitude":-122.007172},{"name":"Brightkite","category_code":"social","office":{"type":"Point","coordinates":[-104.982256,39.762314]},"clean_state":"success","latitude":39.762314,"longitude":-104.982256},{"name":"SlapVid","category_code":"games_video","office":{"type":"Point","coordinates":[-79.948563,40.445009]},"clean_state":"success","latitude":40.445009,"longitude":-79.948563},{"name":"Veotag","category_code":"web","office":{"type":"Point","coordinates":[-73.98546,40.752957]},"clean_state":"success","latitude":40.752957,"longitude":-73.98546},{"name":"Guba","category_code":"web","office":{"type":"Point","coordinates":[-95.712891,37.09024]},"clean_state":"success","latitude":37.09024,"longitude":-95.712891},{"name":"Cloudant","category_code":"enterprise","office":{"type":"Point","coordinates":[-71.05781,42.35892]},"clean_state":"success","latitude":42.35892,"longitude":-71.05781},{"name":"GoFish","category_code":"games_video","office":{"type":"Point","coordinates":[-95.712891,37.09024]},"clean_state":"success","latitude":37.09024,"longitude":-95.712891},{"name":"PartnerUp","category_code":"web","office":null,"clean_state":"Invalid lat lat and long","latitude":null,"longitude":null},{"name":"KIT digital","category_code":"enterprise","office":{"type":"Point","coordinates":[-73.971655,40.751816]},"clean_state":"success","latitude":40.751816,"longitude":-73.971655},{"name":"KIT digital","category_code":"enterprise","office":null,"clean_state":"Invalid lat lat and long","latitude":null,"longitude":null},{"name":"KIT digital","category_code":"enterprise","office":null,"clean_state":"Invalid lat lat and long","latitude":null,"longitude":null},{"name":"KIT digital","category_code":"enterprise","office":null,"clean_state":"Invalid lat lat and long","latitude":null,"longitude":null},{"name":"KIT digital","category_code":"enterprise","office":{"type":"Point","coordinates":[18.0580765,59.3369746]},"clean_state":"success","latitude":59.3369746,"longitude":18.0580765},{"name":"KIT digital","category_code":"enterprise","office":null,"clean_state":"Invalid lat lat and long","latitude":null,"longitude":null},{"name":"KIT digital","category_code":"enterprise","office":null,"clean_state":"Invalid lat lat and long","latitude":null,"longitude":null},{"name":"KIT digital","category_code":"enterprise","office":null,"clean_state":"Invalid lat lat and long","latitude":null,"longitude":null},{"name":"KIT digital","category_code":"enterprise","office":{"type":"Point","coordinates":[-79.5983626,43.6587599]},"clean_state":"success","latitude":43.6587599,"longitude":-79.5983626},{"name":"KIT digital","category_code":"enterprise","office":null,"clean_state":"Invalid lat lat and long","latitude":null,"longitude":null},{"name":"Kiva","category_code":"finance","office":{"type":"Point","coordinates":[-122.4147,37.762125]},"clean_state":"success","latitude":37.762125,"longitude":-122.4147},{"name":"Digitalsmiths","category_code":"software","office":null,"clean_state":"Invalid lat lat and long","latitude":null,"longitude":null},{"name":"Fathom Online","category_code":"advertising","office":{"type":"Point","coordinates":[-122.419204,37.775196]},"clean_state":"success","latitude":37.775196,"longitude":-122.419204},{"name":"Zopa","category_code":"finance","office":{"type":"Point","coordinates":[-0.139947,51.517904]},"clean_state":"success","latitude":51.517904,"longitude":-0.139947},{"name":"Jambo","category_code":"web","office":{"type":"Point","coordinates":[-95.712891,37.09024]},"clean_state":"success","latitude":37.09024,"longitude":-95.712891},{"name":"Hitwise","category_code":"web","office":{"type":"Point","coordinates":[144.963169,-37.814251]},"clean_state":"success","latitude":-37.814251,"longitude":144.963169},{"name":"SuicideGirls","category_code":"web","office":{"type":"Point","coordinates":[-118.348198,34.062262]},"clean_state":"success","latitude":34.062262,"longitude":-118.348198},{"name":"Zivity","category_code":"network_hosting","office":{"type":"Point","coordinates":[-122.397593,37.789488]},"clean_state":"success","latitude":37.789488,"longitude":-122.397593},{"name":"BlueLithium","category_code":"advertising","office":{"type":"Point","coordinates":[-121.948399,37.32052]},"clean_state":"success","latitude":37.32052,"longitude":-121.948399},{"name":"eXpresso","category_code":"public_relations","office":{"type":"Point","coordinates":[-122.121932,37.451637]},"clean_state":"success","latitude":37.451637,"longitude":-122.121932},{"name":"ContextWeb","category_code":"analytics","office":{"type":"Point","coordinates":[-74.010808,40.71014]},"clean_state":"success","latitude":40.71014,"longitude":-74.010808},{"name":"Pixsy Image Search","category_code":"search","office":{"type":"Point","coordinates":[-122.393041,37.779558]},"clean_state":"success","latitude":37.779558,"longitude":-122.393041},{"name":"Goowy","category_code":"web","office":{"type":"Point","coordinates":[-117.163353,32.71537]},"clean_state":"success","latitude":32.71537,"longitude":-117.163353},{"name":"Jooce","category_code":"web","office":{"type":"Point","coordinates":[2.350987,48.856667]},"clean_state":"success","latitude":48.856667,"longitude":2.350987},{"name":"A9","category_code":"web","office":{"type":"Point","coordinates":[-122.164511,37.444554]},"clean_state":"success","latitude":37.444554,"longitude":-122.164511},{"name":"MySpace","category_code":"network_hosting","office":{"type":"Point","coordinates":[-118.372953,34.076061]},"clean_state":"success","latitude":34.076061,"longitude":-118.372953},{"name":"InviteShare","category_code":"public_relations","office":{"type":"Point","coordinates":[-122.205016,37.450128]},"clean_state":"success","latitude":37.450128,"longitude":-122.205016},{"name":"Doostang","category_code":"web","office":{"type":"Point","coordinates":[-122.145783,37.427235]},"clean_state":"success","latitude":37.427235,"longitude":-122.145783},{"name":"JumpTV","category_code":"games_video","office":{"type":"Point","coordinates":[-74.011398,40.705898]},"clean_state":"success","latitude":40.705898,"longitude":-74.011398},{"name":"Helium","category_code":"web","office":{"type":"Point","coordinates":[-71.1469,42.675189]},"clean_state":"success","latitude":42.675189,"longitude":-71.1469},{"name":"Sun Microsystems","category_code":"enterprise","office":{"type":"Point","coordinates":[-121.955463,37.394791]},"clean_state":"success","latitude":37.394791,"longitude":-121.955463},{"name":"ZoomInfo","category_code":"search","office":{"type":"Point","coordinates":[-71.207055,42.38532]},"clean_state":"success","latitude":42.38532,"longitude":-71.207055},{"name":"Docstoc","category_code":"web","office":{"type":"Point","coordinates":[-118.495025,34.018275]},"clean_state":"success","latitude":34.018275,"longitude":-118.495025},{"name":"Zappos","category_code":"web","office":{"type":"Point","coordinates":[-115.064859,36.032976]},"clean_state":"success","latitude":36.032976,"longitude":-115.064859},{"name":"Zappos","category_code":"web","office":null,"clean_state":"Invalid lat lat and long","latitude":null,"longitude":null},{"name":"Vlingo","category_code":"mobile","office":{"type":"Point","coordinates":[-71.118999,42.372912]},"clean_state":"success","latitude":42.372912,"longitude":-71.118999},{"name":"DotBlu","category_code":"web","office":{"type":"Point","coordinates":[-95.712891,37.09024]},"clean_state":"success","latitude":37.09024,"longitude":-95.712891},{"name":"ZYB","category_code":"mobile","office":{"type":"Point","coordinates":[12.541484,55.699123]},"clean_state":"success","latitude":55.699123,"longitude":12.541484},{"name":"Covestor","category_code":"finance","office":null,"clean_state":"Invalid lat lat and long","latitude":null,"longitude":null},{"name":"Covestor","category_code":"finance","office":{"type":"Point","coordinates":[-0.1433689,51.5194201]},"clean_state":"success","latitude":51.5194201,"longitude":-0.1433689},{"name":"TechCrunch","category_code":"news","office":{"type":"Point","coordinates":[-122.1490582,37.4459832]},"clean_state":"success","latitude":37.4459832,"longitude":-122.1490582},{"name":"Mevio","category_code":"games_video","office":{"type":"Point","coordinates":[-122.392142,37.782263]},"clean_state":"success","latitude":37.782263,"longitude":-122.392142},{"name":"Shock Treatment Management","category_code":"web","office":{"type":"Point","coordinates":[-122.339859,47.610332]},"clean_state":"success","latitude":47.610332,"longitude":-122.339859},{"name":"Ruckus","category_code":"games_video","office":{"type":"Point","coordinates":[-95.712891,37.09024]},"clean_state":"success","latitude":37.09024,"longitude":-95.712891},{"name":"Pluck","category_code":"web","office":{"type":"Point","coordinates":[-97.745209,30.268735]},"clean_state":"success","latitude":30.268735,"longitude":-97.745209},{"name":"FilmLoop","category_code":"web","office":{"type":"Point","coordinates":[-122.169472,37.48413]},"clean_state":"success","latitude":37.48413,"longitude":-122.169472},{"name":"BitPass","category_code":"web","office":{"type":"Point","coordinates":[-122.072981,37.40047]},"clean_state":"success","latitude":37.40047,"longitude":-122.072981},{"name":"NewsGator","category_code":"enterprise","office":{"type":"Point","coordinates":[-104.988123,39.755092]},"clean_state":"success","latitude":39.755092,"longitude":-104.988123},{"name":"Zango","category_code":"games_video","office":{"type":"Point","coordinates":[-122.155668,47.579208]},"clean_state":"success","latitude":47.579208,"longitude":-122.155668},{"name":"Alibaba","category_code":"ecommerce","office":null,"clean_state":"Invalid lat lat and long","latitude":null,"longitude":null},{"name":"sezmi","category_code":"games_video","office":{"type":"Point","coordinates":[-122.265869,37.524422]},"clean_state":"success","latitude":37.524422,"longitude":-122.265869},{"name":"sezmi","category_code":"games_video","office":{"type":"Point","coordinates":[-118.453218,34.017373]},"clean_state":"success","latitude":34.017373,"longitude":-118.453218},{"name":"sezmi","category_code":"games_video","office":{"type":"Point","coordinates":[-80.157296,26.207024]},"clean_state":"success","latitude":26.207024,"longitude":-80.157296},{"name":"CinemaNow","category_code":"web","office":{"type":"Point","coordinates":[-118.432526,33.983543]},"clean_state":"success","latitude":33.983543,"longitude":-118.432526},{"name":"Atom Entertainment","category_code":"web","office":{"type":"Point","coordinates":[-122.401128,37.790964]},"clean_state":"success","latitude":37.790964,"longitude":-122.401128},{"name":"eHarmony","category_code":"web","office":{"type":"Point","coordinates":[-118.132351,34.145946]},"clean_state":"success","latitude":34.145946,"longitude":-118.132351},{"name":"Musicmatch","category_code":"web","office":{"type":"Point","coordinates":[-95.712891,37.09024]},"clean_state":"success","latitude":37.09024,"longitude":-95.712891},{"name":"Heavy","category_code":"web","office":{"type":"Point","coordinates":[-73.98962,40.753385]},"clean_state":"success","latitude":40.753385,"longitude":-73.98962},{"name":"Kelkoo","category_code":"ecommerce","office":{"type":"Point","coordinates":[-95.712891,37.09024]},"clean_state":"success","latitude":37.09024,"longitude":-95.712891},{"name":"Friendster","category_code":"web","office":{"type":"Point","coordinates":[101.686855,3.139003]},"clean_state":"success","latitude":3.139003,"longitude":101.686855},{"name":"MusicGremlin","category_code":"hardware","office":{"type":"Point","coordinates":[-95.712891,37.09024]},"clean_state":"success","latitude":37.09024,"longitude":-95.712891},{"name":"Buzzmetrics","category_code":"web","office":{"type":"Point","coordinates":[-73.991933,40.731118]},"clean_state":"success","latitude":40.731118,"longitude":-73.991933},{"name":"Exabre","category_code":"web","office":null,"clean_state":"Invalid lat lat and long","latitude":null,"longitude":null},{"name":"Greystripe","category_code":"advertising","office":{"type":"Point","coordinates":[-122.39323,37.710677]},"clean_state":"success","latitude":37.710677,"longitude":-122.39323},{"name":"ReachLocal","category_code":"advertising","office":{"type":"Point","coordinates":[-72.188584,41.53155]},"clean_state":"success","latitude":41.53155,"longitude":-72.188584},{"name":"ReachLocal","category_code":"advertising","office":{"type":"Point","coordinates":[-79.338246,43.7192415]},"clean_state":"success","latitude":43.7192415,"longitude":-79.338246},{"name":"ReachLocal","category_code":"advertising","office":null,"clean_state":"Invalid lat lat and long","latitude":null,"longitude":null},{"name":"ReachLocal","category_code":"advertising","office":null,"clean_state":"Invalid lat lat and long","latitude":null,"longitude":null},{"name":"ReachLocal","category_code":"advertising","office":null,"clean_state":"Invalid lat lat and long","latitude":null,"longitude":null},{"name":"Narrowstep","category_code":"web","office":{"type":"Point","coordinates":[-95.712891,37.09024]},"clean_state":"success","latitude":37.09024,"longitude":-95.712891},{"name":"WeatherBug","category_code":"web","office":{"type":"Point","coordinates":[-77.2630048,39.2009241]},"clean_state":"success","latitude":39.2009241,"longitude":-77.2630048},{"name":"Bix","category_code":"web","office":{"type":"Point","coordinates":[-95.712891,37.09024]},"clean_state":"success","latitude":37.09024,"longitude":-95.712891},{"name":"Burnlounge","category_code":"web","office":{"type":"Point","coordinates":[-73.993553,40.746953]},"clean_state":"success","latitude":40.746953,"longitude":-73.993553},{"name":"Trulia","category_code":"search","office":{"type":"Point","coordinates":[-122.406676,37.766909]},"clean_state":"success","latitude":37.766909,"longitude":-122.406676},{"name":"Yeigo","category_code":"mobile","office":null,"clean_state":"Invalid lat lat and long","latitude":null,"longitude":null},{"name":"Netblue","category_code":"web","office":{"type":"Point","coordinates":[-95.712891,37.09024]},"clean_state":"success","latitude":37.09024,"longitude":-95.712891},{"name":"Nielsen","category_code":"web","office":{"type":"Point","coordinates":[-73.991933,40.731118]},"clean_state":"success","latitude":40.731118,"longitude":-73.991933},{"name":"DAVE Networks","category_code":"web","office":{"type":"Point","coordinates":[-118.423423,33.979033]},"clean_state":"success","latitude":33.979033,"longitude":-118.423423},{"name":"DAVE Networks","category_code":"web","office":{"type":"Point","coordinates":[-118.439787,33.979506]},"clean_state":"success","latitude":33.979506,"longitude":-118.439787},{"name":"TubeMogul","category_code":"advertising","office":{"type":"Point","coordinates":[-122.286493,37.836957]},"clean_state":"success","latitude":37.836957,"longitude":-122.286493},{"name":"NexTag","category_code":"web","office":{"type":"Point","coordinates":[-122.317471,37.554595]},"clean_state":"success","latitude":37.554595,"longitude":-122.317471},{"name":"dpreview","category_code":"web","office":{"type":"Point","coordinates":[-3.435973,55.378051]},"clean_state":"success","latitude":55.378051,"longitude":-3.435973},{"name":"TechTarget","category_code":"enterprise","office":{"type":"Point","coordinates":[-95.712891,37.09024]},"clean_state":"success","latitude":37.09024,"longitude":-95.712891},{"name":"Lastminute","category_code":"web","office":{"type":"Point","coordinates":[-95.712891,37.09024]},"clean_state":"success","latitude":37.09024,"longitude":-95.712891},{"name":"Sabre","category_code":"web","office":{"type":"Point","coordinates":[-97.1599393,32.9819881]},"clean_state":"success","latitude":32.9819881,"longitude":-97.1599393},{"name":"TripOvation","category_code":"web","office":{"type":"Point","coordinates":[-95.712891,37.09024]},"clean_state":"success","latitude":37.09024,"longitude":-95.712891},{"name":"MusicNet","category_code":"web","office":{"type":"Point","coordinates":[-95.712891,37.09024]},"clean_state":"success","latitude":37.09024,"longitude":-95.712891},{"name":"Cendant","category_code":"web","office":{"type":"Point","coordinates":[-95.712891,37.09024]},"clean_state":"success","latitude":37.09024,"longitude":-95.712891},{"name":"SpiralFrog","category_code":"games_video","office":{"type":"Point","coordinates":[-95.712891,37.09024]},"clean_state":"success","latitude":37.09024,"longitude":-95.712891},{"name":"Multiply","category_code":"ecommerce","office":{"type":"Point","coordinates":[-80.097742,26.400499]},"clean_state":"success","latitude":26.400499,"longitude":-80.097742},{"name":"Multiply","category_code":"ecommerce","office":null,"clean_state":"Invalid lat lat and long","latitude":null,"longitude":null},{"name":"Shopzilla","category_code":"web","office":{"type":"Point","coordinates":[-95.712891,37.09024]},"clean_state":"success","latitude":37.09024,"longitude":-95.712891},{"name":"Shopzilla","category_code":"web","office":null,"clean_state":"Invalid lat lat and long","latitude":null,"longitude":null},{"name":"Shopzilla","category_code":"web","office":null,"clean_state":"Invalid lat lat and long","latitude":null,"longitude":null},{"name":"Shopzilla","category_code":"web","office":null,"clean_state":"Invalid lat lat and long","latitude":null,"longitude":null},{"name":"YellowPages","category_code":"web","office":{"type":"Point","coordinates":[-118.255197,34.155224]},"clean_state":"success","latitude":34.155224,"longitude":-118.255197},{"name":"Vtap","category_code":"games_video","office":{"type":"Point","coordinates":[-71.140538,42.656621]},"clean_state":"success","latitude":42.656621,"longitude":-71.140538},{"name":"Sportsline","category_code":"web","office":{"type":"Point","coordinates":[-95.712891,37.09024]},"clean_state":"success","latitude":37.09024,"longitude":-95.712891},{"name":"Seedcamp","category_code":"finance","office":{"type":"Point","coordinates":[-0.1418973,51.5108803]},"clean_state":"success","latitude":51.5108803,"longitude":-0.1418973},{"name":"Webshots","category_code":"games_video","office":null,"clean_state":"Invalid lat lat and long","latitude":null,"longitude":null},{"name":"Digitas","category_code":"web","office":{"type":"Point","coordinates":[-95.712891,37.09024]},"clean_state":"success","latitude":37.09024,"longitude":-95.712891},{"name":"Digitas","category_code":"web","office":{"type":"Point","coordinates":[2.2673953,48.882314]},"clean_state":"success","latitude":48.882314,"longitude":2.2673953},{"name":"JobPilot","category_code":"web","office":{"type":"Point","coordinates":[-95.712891,37.09024]},"clean_state":"success","latitude":37.09024,"longitude":-95.712891},{"name":"Tickle","category_code":"web","office":{"type":"Point","coordinates":[-95.712891,37.09024]},"clean_state":"success","latitude":37.09024,"longitude":-95.712891},{"name":"Espotting","category_code":"advertising","office":{"type":"Point","coordinates":[-95.712891,37.09024]},"clean_state":"success","latitude":37.09024,"longitude":-95.712891},{"name":"MIVA","category_code":"advertising","office":{"type":"Point","coordinates":[-73.9932793,40.733276]},"clean_state":"success","latitude":40.733276,"longitude":-73.9932793},{"name":"MocoSpace","category_code":"games_video","office":{"type":"Point","coordinates":[-71.058768,42.350274]},"clean_state":"success","latitude":42.350274,"longitude":-71.058768},{"name":"LocaModa","category_code":"advertising","office":{"type":"Point","coordinates":[-71.104329,42.358822]},"clean_state":"success","latitude":42.358822,"longitude":-71.104329},